original_name,formatted_address,latitude,longitude,display_name,class,type
청운동,서울특별시 종로구 청운효자동,37.58895,126.96784,"청운동, 청운효자동, 종로구, 서울특별시, 03047, 대한민국",place,quarter
신교동,서울특별시 종로구 청운효자동,37.58416,126.96723,"신교동, 청운효자동, 종로구, 서울특별시, 03032, 대한민국",place,quarter
궁정동,서울특별시 종로구 청운효자동,37.5843652,126.9724327,"궁정동, 청운효자동, 종로구, 서울특별시, 03032, 대한민국",place,quarter
효자동,경기도 고양시 덕양구,37.661127,126.95699054964274,"효자동, 덕양구, 고양시, 경기도, 대한민국",boundary,administrative
창성동,서울특별시 종로구 청운효자동,37.5808835,126.9725454,"창성동, 청운효자동, 종로구, 서울특별시, 03043, 대한민국",place,quarter
통의동,서울특별시 종로구 사직동,37.5780314,126.9729189080281,"통의동, 사직동, 종로구, 서울특별시, 03044, 대한민국",boundary,legal
적선동,서울특별시 종로구 사직동,37.5751085,126.9735739,"적선동, 사직동, 종로구, 서울특별시, 03170, 대한민국",place,quarter
통인동,서울특별시 종로구 청운효자동,37.5800949,126.970346,"통인동, 청운효자동, 종로구, 서울특별시, 03040, 대한민국",place,quarter
누상동,서울특별시 종로구 청운효자동,37.5804226,126.9630739,"누상동, 청운효자동, 종로구, 서울특별시, 03037, 대한민국",place,quarter
누하동,서울특별시 종로구 청운효자동,37.5789979,126.9675612,"누하동, 청운효자동, 종로구, 서울특별시, 03039, 대한민국",place,quarter
옥인동,서울특별시 종로구 청운효자동,37.58348,126.96385,"옥인동, 청운효자동, 종로구, 서울특별시, 03037, 대한민국",place,quarter
체부동,종로구 사직동 필운동,37.57796505,126.97090667722514,"체부동, 필운동, 사직동, 종로구, 서울특별시, 03040, 대한민국",boundary,legal
필운동,서울특별시 종로구 사직동,37.5773635,126.9690969,"필운동, 사직동, 종로구, 서울특별시, 03027, 대한민국",place,quarter
내자동,서울특별시 종로구 사직동,37.57522,126.97146,"내자동, 사직동, 종로구, 서울특별시, 03169, 대한민국",place,quarter
사직동,대한민국 서울특별시 종로구,37.5738317,126.97030410681307,"사직동, 종로구, 서울특별시, 대한민국",boundary,administrative
도렴동,서울특별시 종로구 사직동,37.5734581,126.9743691,"도렴동, 사직동, 종로구, 서울특별시, 03173, 대한민국",place,quarter
당주동,서울특별시 종로구 사직동,37.5716796,126.9739063,"당주동, 사직동, 종로구, 서울특별시, 03182, 대한민국",place,quarter
내수동,서울특별시 종로구 사직동,37.57294,126.9718,"내수동, 사직동, 종로구, 서울특별시, 03173, 대한민국",place,quarter
세종로,서울특별시 종로구 사직동,37.5757452,126.9766915,"세종로, 사직동, 종로구, 서울특별시, 03171, 대한민국",place,quarter
신문로1가,서울특별시 종로구 사직동,37.57017,126.97417,"신문로1가, 사직동, 종로구, 서울특별시, 03182, 대한민국",place,quarter
신문로2가,서울특별시 종로구 사직동,37.57073,126.96859,"신문로2가, 사직동, 종로구, 서울특별시, 03177, 대한민국",place,quarter
청진동,서울특별시 종로구 종로···가동,37.57125,126.9799,"청진동, 종로1·2·3·4가동, 종로구, 서울특별시, 03156, 대한민국",place,quarter
서린동,서울특별시 종로구 종로···가동,37.56925,126.97959,"서린동, 종로1·2·3·4가동, 종로구, 서울특별시, 03188, 대한민국",place,quarter
수송동,서울특별시 종로구 종로···가동,37.57371,126.98093,"수송동, 종로1·2·3·4가동, 종로구, 서울특별시, 03144, 대한민국",place,quarter
중학동,서울특별시 종로구 종로···가동,37.5750852,126.9794823,"중학동, 종로1·2·3·4가동, 종로구, 서울특별시, 03142, 대한민국",place,quarter
종로1가,서울특별시 종로구 종로···가동,37.5703372,126.98042670430696,"종로1가, 종로1·2·3·4가동, 종로구, 서울특별시, 대한민국",boundary,legal
공평동,서울특별시 종로구 종로···가동,37.57144,126.98279,"공평동, 종로1·2·3·4가동, 종로구, 서울특별시, 03150, 대한민국",place,quarter
관훈동,서울특별시 종로구 종로···가동,37.5742524,126.9845658,"관훈동, 종로1·2·3·4가동, 종로구, 서울특별시, 03149, 대한민국",place,quarter
견지동,서울특별시 종로구 종로···가동,37.5736581,126.98323014817984,"견지동, 종로1·2·3·4가동, 종로구, 서울특별시, 03144, 대한민국",boundary,legal
와룡동,서울특별시 종로구 종로···가동,37.581572,126.9922844,"와룡동, 종로1·2·3·4가동, 종로구, 서울특별시, 03073, 대한민국",place,quarter
권농동,서울특별시 종로구 종로···가동,37.57537,126.99103,"권농동, 종로1·2·3·4가동, 종로구, 서울특별시, 03134, 대한민국",place,quarter
운니동,서울특별시 종로구 종로···가동,37.57603,126.98793,"운니동, 종로1·2·3·4가동, 종로구, 서울특별시, 03131, 대한민국",place,quarter
익선동,서울특별시 종로구 종로···가동,37.5743576,126.9897757,"익선동, 종로1·2·3·4가동, 종로구, 서울특별시, 03132, 대한민국",place,quarter
경운동,서울특별시 종로구 종로···가동,37.57489,126.98625,"경운동, 종로1·2·3·4가동, 종로구, 서울특별시, 03131, 대한민국",place,quarter
관철동,서울특별시 종로구 종로···가동,37.5687846,126.9857059,"관철동, 종로1·2·3·4가동, 종로구, 서울특별시, 04539, 대한민국",place,quarter
인사동,서울특별시 종로구 종로···가동,37.5716543,126.9864242,"인사동, 종로1·2·3·4가동, 종로구, 서울특별시, 03162, 대한민국",place,quarter
낙원동,강원특별자치도 춘천시,37.8788193,127.7242896,"낙원동, 춘천시, 강원특별자치도, 24274, 대한민국",place,quarter
종로2가,서울특별시 종로구 종로···가동,37.5709125,126.9882267,"종로2가, 종로1·2·3·4가동, 종로구, 서울특별시, 03140, 대한민국",place,neighbourhood
팔판동,종로구 삼청동 소격동,37.5826739,126.98107813536885,"팔판동, 소격동, 삼청동, 종로구, 서울특별시, 03054, 대한민국",boundary,legal
삼청동,서울특별시 종로구,37.58964,126.98112,"삼청동, 종로구, 서울특별시, 03049, 대한민국",place,quarter
안국동,서울특별시 종로구 삼청동,37.57721,126.98363,"안국동, 삼청동, 종로구, 서울특별시, 03161, 대한민국",place,quarter
소격동,서울특별시 종로구 삼청동,37.57962,126.98073,"소격동, 삼청동, 종로구, 서울특별시, 03053, 대한민국",place,quarter
화동,전라남도 나주시 죽산리,34.9796943,126.6152957,"화동, 죽산리, 나주시, 전라남도, 58289, 대한민국",place,hamlet
사간동,서울특별시 종로구 삼청동,37.57689,126.9802,"사간동, 삼청동, 종로구, 서울특별시, 03142, 대한민국",place,quarter
송현동,대한민국 인천 동구,37.48632,126.64125103373158,"송현동, 동구, 인천, 대한민국",boundary,administrative
가회동,대한민국 서울특별시 종로구,37.58405975,126.98646442407028,"가회동, 종로구, 서울특별시, 대한민국",boundary,administrative
재동,서울특별시 종로구 가회동,37.5783667,126.9852993,"재동, 가회동, 종로구, 서울특별시, 03060, 대한민국",place,quarter
계동,경기도 안성시,36.9875398,127.2665412,"계동, 안성시, 경기도, 17596, 대한민국",boundary,administrative
원서동,서울특별시 종로구 가회동,37.58146,126.9889406,"원서동, 가회동, 종로구, 서울특별시, 03057, 대한민국",place,quarter
훈정동,서울특별시 종로구 종로···가동,37.5753522,126.9938656,"훈정동, 종로1·2·3·4가동, 종로구, 서울특별시, 03134, 대한민국",place,quarter
묘동,서울특별시 종로구 종로···가동,37.5723634,126.9918466,"묘동, 종로1·2·3·4가동, 종로구, 서울특별시, 03139, 대한민국",place,quarter
봉익동,서울특별시 종로구 종로···가동,37.572,126.99303,"봉익동, 종로1·2·3·4가동, 종로구, 서울특별시, 03139, 대한민국",place,quarter
돈의동,서울특별시 종로구 종로···가동,37.57208,126.99082,"돈의동, 종로1·2·3·4가동, 종로구, 서울특별시, 03139, 대한민국",place,quarter
장사동,서울특별시 종로구 종로···가동,37.56897,126.99348,"장사동, 종로1·2·3·4가동, 종로구, 서울특별시, 03194, 대한민국",place,quarter
관수동,서울특별시 종로구 종로···가동,37.5688,126.99018,"관수동, 종로1·2·3·4가동, 종로구, 서울특별시, 03192, 대한민국",place,quarter
종로3가,종로···가동 묘동 돈화문로길,37.5725401,126.9902702,"종로3가, 돈화문로11길, 묘동, 종로1·2·3·4가동, 종로구, 서울특별시, 03133, 대한민국",railway,station
인의동,서울특별시 종로구 종로···가동,37.57236,126.9971,"인의동, 종로1·2·3·4가동, 종로구, 서울특별시, 03136, 대한민국",place,quarter
예지동,서울특별시 종로구 종로···가동,37.5695591,126.9982556,"예지동, 종로1·2·3·4가동, 종로구, 서울특별시, 03195, 대한민국",place,quarter
원남동,서울특별시 종로구 종로···가동,37.57538,126.99723,"원남동, 종로1·2·3·4가동, 종로구, 서울특별시, 03136, 대한민국",place,quarter
연지동,대한민국 부산광역시 부산진구,35.1725741,129.0539533,"연지동, 부산진구, 부산광역시, 대한민국",boundary,administrative
종로4가,서울특별시 종로구 종로···가동,37.57036,126.99771,"종로4가, 종로1·2·3·4가동, 종로구, 서울특별시, 03195, 대한민국",place,quarter
효제동,서울특별시 종로구 종로·가동,37.5732,127.00299,"효제동, 종로5·6가동, 종로구, 서울특별시, 03126, 대한민국",place,quarter
종로5가,종로가 종로 지하,37.5709867,127.0020222,"종로5가, 지하 216, 종로, 종로5가, 종로5·6가동, 종로구, 서울특별시, 03129, 대한민국",railway,station
종로6가,서울특별시 종로구 종로·가동,37.57174,127.00681,"종로6가, 종로5·6가동, 종로구, 서울특별시, 03125, 대한민국",place,quarter
이화동,서울특별시 종로구,37.57663,127.00515,"이화동, 종로구, 서울특별시, 03087, 대한민국",place,quarter
연건동,서울특별시 종로구 이화동,37.5784056,126.9999208,"연건동, 이화동, 종로구, 서울특별시, 03080, 대한민국",place,quarter
충신동,서울특별시 종로구 종로·가동,37.57459,127.00537,"충신동, 종로5·6가동, 종로구, 서울특별시, 03125, 대한민국",place,quarter
동숭동,서울특별시 종로구 이화동,37.58096,127.0051932,"동숭동, 이화동, 종로구, 서울특별시, 03088, 대한민국",place,quarter
혜화동,서울특별시 종로구,37.58755,127.00217,"혜화동, 종로구, 서울특별시, 03076, 대한민국",place,quarter
명륜1가,서울특별시 종로구 혜화동,37.58861,126.99689,"명륜1가, 혜화동, 종로구, 서울특별시, 03071, 대한민국",place,quarter
명륜2가,서울특별시 종로구 혜화동,37.58446,126.99869,"명륜2가, 혜화동, 종로구, 서울특별시, 03073, 대한민국",place,quarter
명륜4가,서울특별시 종로구 혜화동,37.58214,126.99977,"명륜4가, 혜화동, 종로구, 서울특별시, 03079, 대한민국",place,quarter
명륜3가,서울특별시 종로구 혜화동,37.58659,126.99398,"명륜3가, 혜화동, 종로구, 서울특별시, 03071, 대한민국",place,quarter
창신동,서울특별시 종로구 창신동,37.57595,127.01313,"창신동, 창신3동, 종로구, 서울특별시, 03103, 대한민국",place,quarter
숭인동,서울특별시 종로구 숭인동,37.57648,127.01848,"숭인동, 숭인1동, 종로구, 서울특별시, 03110, 대한민국",place,quarter
교남동,대한민국 서울특별시 종로구,37.5716654,126.96339035786244,"교남동, 종로구, 서울특별시, 대한민국",boundary,administrative
평동,월전동 평동로,35.1248086,126.7695968,"평동, 870, 평동로, 월전동, 광산구, 광주광역시, 62420, 대한민국",railway,station
송월동,인천 중구,37.47916585,126.62123026913878,"송월동, 중구, 인천, 22308, 대한민국",boundary,administrative
홍파동,서울특별시 종로구 교남동,37.571092,126.9638497,"홍파동, 교남동, 종로구, 서울특별시, 03165, 대한민국",place,quarter
교북동,서울특별시 종로구 교남동,37.5721169,126.9611117,"교북동, 교남동, 종로구, 서울특별시, 03026, 대한민국",place,quarter
행촌동,서울특별시 종로구 교남동,37.57425,126.96215,"행촌동, 교남동, 종로구, 서울특별시, 03026, 대한민국",place,quarter
구기동,서울특별시 종로구 평창동,37.609029,126.9573925,"구기동, 평창동, 종로구, 서울특별시, 03000, 대한민국",place,quarter
평창동,대한민국 서울특별시 종로구,37.61597305,126.96764782812966,"평창동, 종로구, 서울특별시, 대한민국",boundary,administrative
부암동,대한민국 서울특별시 종로구,37.5949602,126.9657272,"부암동, 종로구, 서울특별시, 대한민국",boundary,administrative
홍지동,서울특별시 종로구 부암동,37.60041,126.95648,"홍지동, 부암동, 종로구, 서울특별시, 03016, 대한민국",place,quarter
신영동,서울특별시 종로구 부암동,37.60277,126.9616,"신영동, 부암동, 종로구, 서울특별시, 03018, 대한민국",place,quarter
무악동,서울특별시 종로구,37.57672,126.95812,"무악동, 종로구, 서울특별시, 03024, 대한민국",place,quarter
무교동,서울특별시 중구 명동,37.5677346,126.9783841,"무교동, 명동, 중구, 서울특별시, 04520, 대한민국",place,quarter
다동,서울특별시 중구 명동,37.56749,126.98075,"다동, 명동, 중구, 서울특별시, 04522, 대한민국",place,quarter
태평로1가,서울특별시 중구 명동,37.56727,126.977,"태평로1가, 명동, 중구, 서울특별시, 04524, 대한민국",place,quarter
을지로1가,서울특별시 중구 명동,37.56565,126.97992,"을지로1가, 명동, 중구, 서울특별시, 04533, 대한민국",place,quarter
을지로2가,서울특별시 중구 명동,37.56541,126.98584,"을지로2가, 명동, 중구, 서울특별시, 04538, 대한민국",place,quarter
남대문로1가,서울특별시 중구 명동,37.5673,126.98262,"남대문로1가, 명동, 중구, 서울특별시, 04540, 대한민국",place,quarter
삼각동,서울특별시 중구 명동,37.5678447,126.9836991,"삼각동, 명동, 중구, 서울특별시, 04540, 대한민국",place,quarter
수하동,서울특별시 중구 명동,37.5672469,126.9847116,"수하동, 명동, 중구, 서울특별시, 04539, 대한민국",place,quarter
장교동,서울특별시 중구 명동,37.5671882,126.9865674,"장교동, 명동, 중구, 서울특별시, 04539, 대한민국",place,quarter
수표동,서울특별시 중구 명동,37.56717,126.98902,"수표동, 명동, 중구, 서울특별시, 04542, 대한민국",place,quarter
소공동,서울특별시 중구,37.5636592,126.9794961,"소공동, 중구, 서울특별시, 04532, 대한민국",place,quarter
남창동,서울특별시 중구 회현동,37.5577353,126.9774875,"남창동, 회현동, 중구, 서울특별시, 04528, 대한민국",place,quarter
북창동,서울특별시 중구 소공동,37.5622756,126.9778395,"북창동, 소공동, 중구, 서울특별시, 04526, 대한민국",place,quarter
태평로2가,서울특별시 중구 소공동,37.5645479,126.9766825,"태평로2가, 소공동, 중구, 서울특별시, 04515, 대한민국",place,quarter
남대문로2가,서울특별시 중구 소공동,37.56431,126.98189,"남대문로2가, 소공동, 중구, 서울특별시, 04534, 대한민국",place,quarter
남대문로3가,서울특별시 중구 소공동,37.56131,126.97901,"남대문로3가, 소공동, 중구, 서울특별시, 04526, 대한민국",place,quarter
남대문로4가,서울특별시 중구 소공동,37.5608824,126.9764175,"남대문로4가, 소공동, 중구, 서울특별시, 04526, 대한민국",place,quarter
남대문로5가,서울특별시 중구 회현동,37.5562433,126.9751334,"남대문로5가, 회현동, 중구, 서울특별시, 04527, 대한민국",place,quarter
봉래동1가,서울특별시 중구 회현동,37.55904,126.97248,"봉래동1가, 회현동, 중구, 서울특별시, 04512, 대한민국",place,quarter
봉래동2가,서울특별시 중구 회현동,37.55661,126.97177,"봉래동2가, 회현동, 중구, 서울특별시, 04509, 대한민국",place,quarter
회현동1가,서울특별시 중구 회현동,37.55689,126.98138,"회현동1가, 회현동, 중구, 서울특별시, 04633, 대한민국",place,quarter
회현동2가,서울특별시 중구 회현동,37.55833,126.98217,"회현동2가, 회현동, 중구, 서울특별시, 04632, 대한민국",place,quarter
회현동3가,서울특별시 중구 명동,37.55989,126.98357,"회현동3가, 명동, 중구, 서울특별시, 04631, 대한민국",place,quarter
충무로1가,서울특별시 중구 명동,37.56088,126.98318,"충무로1가, 명동, 중구, 서울특별시, 04536, 대한민국",place,quarter
충무로2가,서울특별시 중구 명동,37.5617898,126.98771289440938,"충무로2가, 명동, 중구, 서울특별시, 04553, 대한민국",boundary,legal
명동1가,서울특별시 중구 명동,37.564195,126.9837697,"명동1가, 명동, 중구, 서울특별시, 04534, 대한민국",place,quarter
명동2가,서울특별시 중구 명동,37.5628575,126.9851914,"명동2가, 명동, 중구, 서울특별시, 04537, 대한민국",place,quarter
남산동1가,서울특별시 중구 명동,37.55886,126.98426,"남산동1가, 명동, 중구, 서울특별시, 04631, 대한민국",place,quarter
남산동2가,서울특별시 중구 명동,37.55841,126.98532,"남산동2가, 명동, 중구, 서울특별시, 04630, 대한민국",place,quarter
남산동3가,서울특별시 중구 명동,37.55979,126.98709,"남산동3가, 명동, 중구, 서울특별시, 04629, 대한민국",place,quarter
저동1가,서울특별시 중구 명동,37.5639465,126.9878635,"저동1가, 명동, 중구, 서울특별시, 04538, 대한민국",place,quarter
충무로4가,서울특별시 중구 광희동,37.56208,126.99556,"충무로4가, 광희동, 중구, 서울특별시, 04625, 대한민국",place,quarter
충무로5가,서울특별시 중구 필동,37.5623267,126.9991376,"충무로5가, 필동, 중구, 서울특별시, 04619, 대한민국",place,quarter
인현동2가,서울특별시 중구 광희동,37.56397,126.99591,"인현동2가, 광희동, 중구, 서울특별시, 04548, 대한민국",place,quarter
예관동,서울특별시 중구 광희동,37.56408,126.99754,"예관동, 광희동, 중구, 서울특별시, 04558, 대한민국",place,quarter
묵정동,서울특별시 중구 필동,37.5612,127.00019,"묵정동, 필동, 중구, 서울특별시, 04619, 대한민국",place,quarter
필동1가,서울특별시 중구 필동,37.56082,126.99224,"필동1가, 필동, 중구, 서울특별시, 04627, 대한민국",place,quarter
필동2가,서울특별시 중구 필동,37.5579073,126.9947847,"필동2가, 필동, 중구, 서울특별시, 04626, 대한민국",place,quarter
필동3가,서울특별시 중구 필동,37.5581985,126.9966383,"필동3가, 필동, 중구, 서울특별시, 04624, 대한민국",place,quarter
남학동,서울특별시 중구 필동,37.56034,126.99071,"남학동, 필동, 중구, 서울특별시, 04627, 대한민국",place,quarter
주자동,중구 필동 남학동,37.56066725,126.98934615448636,"주자동, 남학동, 필동, 중구, 서울특별시, 대한민국",boundary,legal
예장동,서울특별시 중구 필동,37.55492,126.98941,"예장동, 필동, 중구, 서울특별시, 04340, 대한민국",place,quarter
장충동1가,서울특별시 중구 장충동,37.56041,127.00706,"장충동1가, 장충동, 중구, 서울특별시, 04606, 대한민국",place,quarter
장충동2가,서울특별시 중구 장충동,37.5541467,127.0002445,"장충동2가, 장충동, 중구, 서울특별시, 04620, 대한민국",place,quarter
광희동1가,서울특별시 중구 광희동,37.56494,127.00442,"광희동1가, 광희동, 중구, 서울특별시, 04561, 대한민국",place,quarter
광희동2가,서울특별시 중구 광희동,37.56361,127.00788,"광희동2가, 광희동, 중구, 서울특별시, 04564, 대한민국",place,quarter
쌍림동,서울특별시 중구 광희동,37.56309,127.00359,"쌍림동, 광희동, 중구, 서울특별시, 04615, 대한민국",place,quarter
을지로6가,서울특별시 중구 광희동,37.56719,127.00646,"을지로6가, 광희동, 중구, 서울특별시, 04564, 대한민국",place,quarter
을지로7가,서울특별시 중구 광희동,37.56629,127.00897,"을지로7가, 광희동, 중구, 서울특별시, 04564, 대한민국",place,quarter
을지로4가,을지로가 을지로,37.5666425,126.9981685,"을지로4가, 178, 을지로, 을지로5가, 을지로동, 중구, 서울특별시, 04546, 대한민국",railway,station
을지로5가,서울특별시 중구 을지로동,37.5665,127.00172,"을지로5가, 을지로동, 중구, 서울특별시, 04561, 대한민국",place,quarter
주교동,경기도 고양시 덕양구,37.6600889,126.8268991,"주교동, 덕양구, 고양시, 경기도, 대한민국",boundary,administrative
방산동,서울특별시 중구 을지로동,37.56822,127.00264,"방산동, 을지로동, 중구, 서울특별시, 04546, 대한민국",place,quarter
오장동,서울특별시 중구 광희동,37.56417,127.00024,"오장동, 광희동, 중구, 서울특별시, 04618, 대한민국",place,quarter
을지로3가,을지로가 을지로,37.5663363,126.9925305,"을지로3가, 106, 을지로, 을지로3가, 을지로동, 중구, 서울특별시, 04550, 대한민국",railway,station
입정동,서울특별시 중구 을지로동,37.5676286,126.9921126,"입정동, 을지로동, 중구, 서울특별시, 04543, 대한민국",place,quarter
산림동,서울특별시 중구 을지로동,37.56738,126.99578,"산림동, 을지로동, 중구, 서울특별시, 04545, 대한민국",place,quarter
충무로3가,서울특별시 중구 필동,37.56217,126.99157,"충무로3가, 필동, 중구, 서울특별시, 04554, 대한민국",place,quarter
초동,서울특별시 중구 을지로동,37.56431,126.99195,"초동, 을지로동, 중구, 서울특별시, 04556, 대한민국",place,quarter
인현동1가,서울특별시 중구 을지로동,37.56418,126.99393,"인현동1가, 을지로동, 중구, 서울특별시, 04556, 대한민국",place,quarter
저동2가,서울특별시 중구 을지로동,37.56412,126.98949,"저동2가, 을지로동, 중구, 서울특별시, 04551, 대한민국",place,quarter
신당동,대한민국 서울특별시 중구,37.5651969,127.01321999381744,"신당동, 중구, 서울특별시, 대한민국",boundary,administrative
흥인동,중구 신당동 통,37.56738,127.01651,"흥인동, 1통, 신당동, 중구, 서울특별시, 04570, 대한민국",place,quarter
무학동,중구 신당동 통,37.56391,127.01477,"무학동, 3통, 신당동, 중구, 서울특별시, 04611, 대한민국",place,quarter
황학동,대한민국 서울특별시 중구,37.5675499,127.02172,"황학동, 중구, 서울특별시, 대한민국",boundary,administrative
서소문동,서울특별시 중구 소공동,37.56283,126.97365,"서소문동, 소공동, 중구, 서울특별시, 04514, 대한민국",place,quarter
정동,서울특별시 중구 소공동,37.5661683,126.9726202,"정동, 소공동, 중구, 서울특별시, 04518, 대한민국",place,quarter
순화동,서울특별시 중구 소공동,37.5623,126.97037,"순화동, 소공동, 중구, 서울특별시, 03739, 대한민국",place,quarter
의주로1가,서울특별시 중구 소공동,37.56509,126.96799,"의주로1가, 소공동, 중구, 서울특별시, 03739, 대한민국",place,quarter
충정로1가,서울특별시 중구 소공동,37.56652,126.96771,"충정로1가, 소공동, 중구, 서울특별시, 03735, 대한민국",place,quarter
중림동,대한민국 서울특별시 중구,37.5567609,126.96630371330951,"중림동, 중구, 서울특별시, 대한민국",boundary,administrative
의주로2가,서울특별시 중구 중림동,37.56088,126.96923,"의주로2가, 중림동, 중구, 서울특별시, 03742, 대한민국",place,quarter
만리동1가,서울특별시 중구 중림동,37.55575,126.96685,"만리동1가, 중림동, 중구, 서울특별시, 04507, 대한민국",place,quarter
만리동2가,서울특별시 중구 중림동,37.5542952,126.96403915338996,"만리동2가, 중림동, 중구, 서울특별시, 04500, 대한민국",boundary,legal
후암동,대한민국 서울특별시 용산구,37.55011,126.98028,"후암동, 용산구, 서울특별시, 대한민국",boundary,administrative
용산동2가,서울특별시 용산구 용산가동,37.54305,126.98558,"용산동2가, 용산2가동, 용산구, 서울특별시, 04338, 대한민국",place,quarter
용산동4가,서울특별시 용산구 용산가동,37.53046,126.9858,"용산동4가, 용산2가동, 용산구, 서울특별시, 04390, 대한민국",place,quarter
갈월동,서울특별시 용산구 남영동,37.54487,126.9715441,"갈월동, 남영동, 용산구, 서울특별시, 04321, 대한민국",place,quarter
남영동,대한민국 서울특별시 용산구,37.54508045,126.97488842324076,"남영동, 용산구, 서울특별시, 대한민국",boundary,administrative
용산동1가,서울특별시 용산구 남영동,37.54011,126.9767,"용산동1가, 남영동, 용산구, 서울특별시, 04353, 대한민국",place,quarter
동자동,서울특별시 용산구 남영동,37.55112,126.97251,"동자동, 남영동, 용산구, 서울특별시, 04320, 대한민국",place,quarter
서계동,서울특별시 용산구 청파동,37.55234,126.96595,"서계동, 청파동, 용산구, 서울특별시, 04303, 대한민국",place,quarter
청파동1가,서울특별시 용산구 청파동,37.5488,126.96668,"청파동1가, 청파동, 용산구, 서울특별시, 04303, 대한민국",place,quarter
청파동2가,서울특별시 용산구 청파동,37.54655,126.96675,"청파동2가, 청파동, 용산구, 서울특별시, 04314, 대한민국",place,quarter
청파동3가,서울특별시 용산구 청파동,37.5430014,126.9666002,"청파동3가, 청파동, 용산구, 서울특별시, 04314, 대한민국",place,quarter
원효로1가,대한민국 서울특별시 용산구,37.537689150000006,126.96732507803657,"원효로1가, 용산구, 서울특별시, 대한민국",boundary,administrative
원효로2가,서울특별시 용산구,37.53321735,126.95234701063902,"원효로2가, 용산구, 서울특별시, 04365, 대한민국",boundary,administrative
신창동,대한민국 광주광역시 광산구,35.1901594,126.8467735,"신창동, 광산구, 광주광역시, 대한민국",boundary,administrative
산천동,서울특별시 용산구 원효로가,37.53558,126.95029,"산천동, 원효로2가, 용산구, 서울특별시, 04365, 대한민국",place,quarter
청암동,서울특별시 용산구 원효로가,37.53511,126.94593,"청암동, 원효로2가, 용산구, 서울특별시, 04178, 대한민국",place,quarter
원효로3가,서울특별시 용산구 원효로가,37.53427,126.9578,"원효로3가, 원효로2가, 용산구, 서울특별시, 04363, 대한민국",place,quarter
원효로4가,서울특별시 용산구 원효로가,37.53211,126.95127,"원효로4가, 원효로2가, 용산구, 서울특별시, 04365, 대한민국",place,quarter
효창동,대한민국 서울특별시 용산구,37.54341,126.96037,"효창동, 용산구, 서울특별시, 대한민국",boundary,administrative
도원동,대한민국 대구광역시 달서구,35.8066874,128.5358555,"도원동, 달서구, 대구광역시, 대한민국",boundary,administrative
용문동,대한민국 서울특별시 용산구,37.538097750000006,126.95862107239697,"용문동, 용산구, 서울특별시, 대한민국",boundary,administrative
문배동,서울특별시 용산구 원효로가,37.5367,126.96818,"문배동, 원효로1가, 용산구, 서울특별시, 04368, 대한민국",place,quarter
신계동,서울특별시 용산구 원효로가,37.53539,126.96462,"신계동, 원효로1가, 용산구, 서울특별시, 04364, 대한민국",place,quarter
한강로1가,서울특별시 용산구 한강로동,37.53517,126.97404,"한강로1가, 한강로동, 용산구, 서울특별시, 04375, 대한민국",place,quarter
한강로2가,서울특별시 용산구 한강로동,37.53142,126.9685,"한강로2가, 한강로동, 용산구, 서울특별시, 04376, 대한민국",place,quarter
용산동3가,서울특별시 용산구 한강로동,37.53226,126.97647,"용산동3가, 한강로동, 용산구, 서울특별시, 04382, 대한민국",place,quarter
용산동5가,서울특별시 용산구 한강로동,37.52533,126.9730431,"용산동5가, 한강로동, 용산구, 서울특별시, 04386, 대한민국",place,quarter
한강로3가,서울특별시 용산구 한강로동,37.52754,126.96297,"한강로3가, 한강로동, 용산구, 서울특별시, 04379, 대한민국",place,quarter
이촌동,대한민국 서울특별시 용산구,37.5192594,126.96654458624177,"이촌동, 용산구, 서울특별시, 대한민국",boundary,legal
이태원동,서울특별시 용산구 이태원동,37.53842,126.992,"이태원동, 이태원2동, 용산구, 서울특별시, 04344, 대한민국",place,quarter
한남동,대한민국 서울특별시 용산구,37.53822,127.0074,"한남동, 용산구, 서울특별시, 대한민국",boundary,administrative
동빙고동,서울특별시 용산구 서빙고동,37.52215,126.99571,"동빙고동, 서빙고동, 용산구, 서울특별시, 04398, 대한민국",place,quarter
서빙고동,대한민국 서울특별시 용산구,37.51769075,126.99123969122316,"서빙고동, 용산구, 서울특별시, 대한민국",boundary,administrative
주성동,서울특별시 용산구 서빙고동,37.52217,126.99961,"주성동, 서빙고동, 용산구, 서울특별시, 04398, 대한민국",place,quarter
용산동6가,서울특별시 용산구 서빙고동,37.52352,126.9858,"용산동6가, 서빙고동, 용산구, 서울특별시, 04428, 대한민국",place,quarter
보광동,대한민국 서울특별시 용산구,37.5267109,127.00021654781033,"보광동, 용산구, 서울특별시, 대한민국",boundary,administrative
상왕십리동,성동구 왕십리도선동 왕십리뉴타운구역텐즈힐아파트,37.5683106,127.0245724,"상왕십리동, 왕십리뉴타운2구역텐즈힐아파트, 왕십리도선동, 성동구, 서울특별시, 04700, 대한민국",place,quarter
하왕십리동,서울특별시 성동구 왕십리동,37.56131,127.02715,"하왕십리동, 왕십리2동, 성동구, 서울특별시, 04713, 대한민국",place,quarter
홍익동,성동구 왕십리도선동 통,37.5660138,127.0327281,"홍익동, 10통, 왕십리도선동, 성동구, 서울특별시, 04707, 대한민국",place,quarter
도선동,성동구 왕십리도선동 통,37.56322,127.03311,"도선동, 4통, 왕십리도선동, 성동구, 서울특별시, 04709, 대한민국",place,quarter
마장동,대한민국 서울특별시 성동구,37.56743,127.04045,"마장동, 성동구, 서울특별시, 대한민국",boundary,administrative
사근동,대한민국 서울특별시 성동구,37.5589948,127.0480281,"사근동, 성동구, 서울특별시, 대한민국",boundary,administrative
행당동,서울특별시 성동구 행당동,37.55783,127.03571,"행당동, 행당1동, 성동구, 서울특별시, 04744, 대한민국",place,quarter
응봉동,대한민국 서울특별시 성동구,37.55236,127.03356,"응봉동, 성동구, 서울특별시, 대한민국",boundary,administrative
금호동1가,서울특별시 성동구 금호가동,37.55286,127.02393,"금호동1가, 금호1가동, 성동구, 서울특별시, 04718, 대한민국",place,quarter
금호동2가,서울특별시 성동구 금호·가동,37.55311,127.0211,"금호동2가, 금호2·3가동, 성동구, 서울특별시, 04726, 대한민국",place,quarter
금호동3가,서울특별시 성동구 금호·가동,37.54998,127.02213,"금호동3가, 금호2·3가동, 성동구, 서울특별시, 04729, 대한민국",place,quarter
금호동4가,서울특별시 성동구 금호가동,37.54479,127.02339,"금호동4가, 금호4가동, 성동구, 서울특별시, 04729, 대한민국",place,quarter
옥수동,대한민국 서울특별시 성동구,37.54176,127.01648,"옥수동, 성동구, 서울특별시, 대한민국",boundary,administrative
성수동1가,서울특별시 성동구 성수가동,37.5435,127.03742,"성수동1가, 성수1가1동, 성동구, 서울특별시, 04768, 대한민국",place,quarter
성수동2가,서울특별시 성동구 성수가동,37.54048,127.05601,"성수동2가, 성수2가1동, 성동구, 서울특별시, 04784, 대한민국",place,quarter
송정동,대한민국 서울특별시 성동구,37.55374825,127.06848349493912,"송정동, 성동구, 서울특별시, 대한민국",boundary,administrative
용답동,대한민국 서울특별시 성동구,37.5613328,127.05801460358003,"용답동, 성동구, 서울특별시, 대한민국",boundary,administrative
중곡동,대한민국 서울특별시 광진구,37.563443500000005,127.0880807785108,"중곡동, 광진구, 서울특별시, 대한민국",boundary,administrative
능동,대한민국 서울특별시 광진구,37.55103605,127.08261025540794,"능동, 광진구, 서울특별시, 대한민국",boundary,legal
구의동,대한민국 서울특별시 광진구,37.54448955,127.08746775824947,"구의동, 광진구, 서울특별시, 대한민국",boundary,administrative
광장동,대한민국 서울특별시 광진구,37.54711,127.10414,"광장동, 광진구, 서울특별시, 대한민국",boundary,administrative
자양동,대한민국 서울특별시 광진구,37.53169045,127.07494767413708,"자양동, 광진구, 서울특별시, 대한민국",boundary,administrative
화양동,대한민국 서울특별시 광진구,37.54408,127.06895,"화양동, 광진구, 서울특별시, 대한민국",boundary,administrative
군자동,대한민국 서울특별시 광진구,37.55316965,127.07377378693272,"군자동, 광진구, 서울특별시, 대한민국",boundary,legal
신설동,신설동 왕산로 지하,37.5759931,127.0231865,"신설동, 지하 1, 왕산로, 신설동, 숭인2동, 동대문구, 서울특별시, 02582, 대한민국",railway,station
용두동,서울특별시 동대문구 용신동,37.57616,127.03476,"용두동, 용신동, 동대문구, 서울특별시, 02566, 대한민국",place,quarter
제기동,제기동 왕산로 지하,37.5783784,127.0344672,"제기동, 지하 93, 왕산로, 제기동, 용신동, 동대문구, 서울특별시, 02566, 대한민국",railway,station
전농동,서울특별시 동대문구 전농동,37.5806,127.05543,"전농동, 전농1동, 동대문구, 서울특별시, 02505, 대한민국",place,quarter
답십리동,서울특별시 동대문구 답십리동,37.57002,127.05467,"답십리동, 답십리1동, 동대문구, 서울특별시, 02615, 대한민국",place,quarter
장안동,서울특별시 동대문구 장안동,37.57105,127.06806,"장안동, 장안1동, 동대문구, 서울특별시, 02623, 대한민국",place,quarter
청량리동,대한민국 서울특별시 동대문구,37.5882073,127.046251807744,"청량리동, 동대문구, 서울특별시, 대한민국",boundary,administrative
회기동,대한민국 서울특별시 동대문구,37.59433,127.05178,"회기동, 동대문구, 서울특별시, 대한민국",boundary,administrative
휘경동,서울특별시 동대문구 휘경동,37.58773,127.06526,"휘경동, 휘경2동, 동대문구, 서울특별시, 02500, 대한민국",place,quarter
이문동,서울특별시 동대문구 이문동,37.60021,127.06124,"이문동, 이문2동, 동대문구, 서울특별시, 02403, 대한민국",place,quarter
면목동,대한민국 서울특별시 중랑구,37.5817944,127.09104236297874,"면목동, 중랑구, 서울특별시, 대한민국",boundary,legal
상봉동,서울특별시 중랑구,37.60016445,127.09090242362626,"상봉동, 중랑구, 서울특별시, 02098, 대한민국",boundary,legal
중화동,대한민국 서울특별시 중랑구,37.600513500000005,127.0793786912108,"중화동, 중랑구, 서울특별시, 대한민국",boundary,legal
묵동,대한민국 서울특별시 중랑구,37.6127705,127.07852004488316,"묵동, 중랑구, 서울특별시, 대한민국",boundary,legal
망우동,대한민국 서울특별시 중랑구,37.60086375,127.1076268962394,"망우동, 중랑구, 서울특별시, 대한민국",boundary,legal
신내동,대한민국 서울특별시 중랑구,37.61071285,127.09312767202238,"신내동, 중랑구, 서울특별시, 대한민국",boundary,legal
성북동,대한민국 서울특별시 성북구,37.59552,126.99215,"성북동, 성북구, 서울특별시, 대한민국",boundary,administrative
성북동1가,서울특별시 성북구 성북동,37.5937602,127.0039977,"성북동1가, 성북동, 성북구, 서울특별시, 02880, 대한민국",place,quarter
돈암동,서울특별시 성북구 돈암동,37.59785535,127.02098648548665,"돈암동, 돈암1동, 성북구, 서울특별시, 대한민국",boundary,legal
동소문동1가,서울특별시 성북구 성북동,37.59,127.00695,"동소문동1가, 성북동, 성북구, 서울특별시, 02833, 대한민국",place,quarter
동소문동2가,서울특별시 성북구 삼선동,37.58839,127.00785,"동소문동2가, 삼선동, 성북구, 서울특별시, 02833, 대한민국",place,quarter
동소문동3가,서울특별시 성북구 삼선동,37.58993,127.01131,"동소문동3가, 삼선동, 성북구, 서울특별시, 02862, 대한민국",place,quarter
동소문동4가,서울특별시 성북구 성북동,37.5914,127.0103,"동소문동4가, 성북동, 성북구, 서울특별시, 02833, 대한민국",place,quarter
동소문동5가,서울특별시 성북구 삼선동,37.59112,127.01481,"동소문동5가, 삼선동, 성북구, 서울특별시, 02847, 대한민국",place,quarter
동소문동6가,서울특별시 성북구 동선동,37.5932,127.01369,"동소문동6가, 동선동, 성북구, 서울특별시, 02847, 대한민국",place,quarter
동소문동7가,서울특별시 성북구 동선동,37.59584,127.01395,"동소문동7가, 동선동, 성북구, 서울특별시, 02825, 대한민국",place,quarter
삼선동1가,서울특별시 성북구 삼선동,37.58446,127.00809,"삼선동1가, 삼선동, 성북구, 서울특별시, 02876, 대한민국",place,quarter
삼선동2가,서울특별시 성북구 삼선동,37.58438,127.0102,"삼선동2가, 삼선동, 성북구, 서울특별시, 02876, 대한민국",place,quarter
삼선동3가,서울특별시 성북구 삼선동,37.58635,127.01311,"삼선동3가, 삼선동, 성북구, 서울특별시, 02862, 대한민국",place,quarter
삼선동4가,서울특별시 성북구 삼선동,37.58935,127.01307,"삼선동4가, 삼선동, 성북구, 서울특별시, 02862, 대한민국",place,quarter
삼선동5가,서울특별시 성북구 삼선동,37.58811,127.01573,"삼선동5가, 삼선동, 성북구, 서울특별시, 02862, 대한민국",place,quarter
동선동1가,서울특별시 성북구 동선동,37.59202,127.01799,"동선동1가, 동선동, 성북구, 서울특별시, 02845, 대한민국",place,quarter
동선동2가,서울특별시 성북구 동선동,37.58964,127.01929,"동선동2가, 동선동, 성북구, 서울특별시, 02849, 대한민국",place,quarter
동선동3가,서울특별시 성북구 동선동,37.5955726,127.0172776,"동선동3가, 동선동, 성북구, 서울특별시, 02829, 대한민국",place,quarter
동선동4가,서울특별시 성북구 동선동,37.59457,127.0185,"동선동4가, 동선동, 성북구, 서울특별시, 02829, 대한민국",place,quarter
동선동5가,서울특별시 성북구 동선동,37.59588,127.01651,"동선동5가, 동선동, 성북구, 서울특별시, 02829, 대한민국",place,quarter
안암동1가,서울특별시 성북구 안암동,37.58774,127.02097,"안암동1가, 안암동, 성북구, 서울특별시, 02844, 대한민국",place,quarter
안암동2가,서울특별시 성북구 안암동,37.58616,127.02271,"안암동2가, 안암동, 성북구, 서울특별시, 02843, 대한민국",place,quarter
안암동3가,서울특별시 성북구 안암동,37.58371,127.02359,"안암동3가, 안암동, 성북구, 서울특별시, 02858, 대한민국",place,quarter
안암동4가,서울특별시 성북구 안암동,37.58079,127.02558,"안암동4가, 안암동, 성북구, 서울특별시, 02858, 대한민국",place,quarter
안암동5가,서울특별시 성북구 안암동,37.5887938,127.0300906,"안암동5가, 안암동, 성북구, 서울특별시, 02841, 대한민국",place,quarter
보문동4가,서울특별시 성북구 보문동,37.58255,127.02114,"보문동4가, 보문동, 성북구, 서울특별시, 02858, 대한민국",place,quarter
보문동5가,서울특별시 성북구 보문동,37.58208,127.01976,"보문동5가, 보문동, 성북구, 서울특별시, 03110, 대한민국",place,quarter
보문동6가,서울특별시 성북구 보문동,37.58047,127.01856,"보문동6가, 보문동, 성북구, 서울특별시, 03110, 대한민국",place,quarter
보문동7가,서울특별시 성북구 보문동,37.57934,127.022,"보문동7가, 보문동, 성북구, 서울특별시, 02858, 대한민국",place,quarter
보문동1가,서울특별시 성북구 보문동,37.58612,127.01936,"보문동1가, 보문동, 성북구, 서울특별시, 02870, 대한민국",place,quarter
보문동2가,서울특별시 성북구 보문동,37.58547,127.01799,"보문동2가, 보문동, 성북구, 서울특별시, 02870, 대한민국",place,quarter
보문동3가,서울특별시 성북구 보문동,37.58419,127.01622,"보문동3가, 보문동, 성북구, 서울특별시, 02870, 대한민국",place,quarter
정릉동,대한민국 서울특별시 성북구,37.6167954,126.99729980019455,"정릉동, 성북구, 서울특별시, 대한민국",boundary,legal
길음동,서울특별시 성북구 길음동,37.6085308,127.0201946,"길음동, 길음1동, 성북구, 서울특별시, 02720, 대한민국",place,quarter
종암동,대한민국 서울특별시 성북구,37.59631,127.03333,"종암동, 성북구, 서울특별시, 대한민국",boundary,administrative
하월곡동,서울특별시 성북구 월곡동,37.60444,127.03764,"하월곡동, 월곡2동, 성북구, 서울특별시, 02751, 대한민국",place,quarter
상월곡동,서울특별시 성북구 월곡동,37.60607,127.04629,"상월곡동, 월곡2동, 성북구, 서울특별시, 02753, 대한민국",place,quarter
장위동,대한민국 서울특별시 성북구,37.61602205,127.05024999283457,"장위동, 성북구, 서울특별시, 대한민국",boundary,legal
석관동,대한민국 서울특별시 성북구,37.60789015,127.06148520004992,"석관동, 성북구, 서울특별시, 대한민국",boundary,administrative
미아동,대한민국 서울특별시 강북구,37.6220808,127.02090762691498,"미아동, 강북구, 서울특별시, 대한민국",boundary,legal
번동,대한민국 서울특별시 강북구,37.6292271,127.03747575915716,"번동, 강북구, 서울특별시, 대한민국",boundary,legal
수유동,대한민국 서울특별시 강북구,37.636597,127.0043825133653,"수유동, 강북구, 서울특별시, 대한민국",boundary,legal
우이동,,37.6633763,127.0020938008247,"우이동, 서울특별시, 대한민국",boundary,legal
쌍문동,대한민국 서울특별시 도봉구,37.65293455,127.02493658713578,"쌍문동, 도봉구, 서울특별시, 대한민국",boundary,legal
방학동,대한민국 서울특별시 도봉구,37.664321400000006,127.0333780379635,"방학동, 도봉구, 서울특별시, 대한민국",boundary,legal
창동,창동 마들로길,37.6534371,127.0488204,"창동, 77, 마들로11길, 창4동, 도봉구, 서울특별시, 01418, 대한민국",railway,stop
도봉동,대한민국 서울특별시 도봉구,37.6852654,127.03035483415854,"도봉동, 도봉구, 서울특별시, 대한민국",boundary,legal
월계동,대한민국 서울특별시 노원구,37.6298479,127.0541062175119,"월계동, 노원구, 서울특별시, 대한민국",boundary,legal
공릉동,대한민국 서울특별시 노원구,37.63021515,127.0872902349954,"공릉동, 노원구, 서울특별시, 대한민국",boundary,legal
하계동,대한민국 서울특별시 노원구,37.6382503,127.07383024265836,"하계동, 노원구, 서울특별시, 대한민국",boundary,legal
상계동,대한민국 경기도 서울특별시,37.66682525,127.07222636796388,"상계동, 서울특별시, 경기도, 대한민국",boundary,legal
중계동,대한민국 서울특별시 노원구,37.65098145,127.08102589582587,"중계동, 노원구, 서울특별시, 대한민국",boundary,legal
수색동,대한민국 서울특별시 은평구,37.58518725,126.8948584489098,"수색동, 은평구, 서울특별시, 대한민국",boundary,administrative
녹번동,대한민국 서울특별시 은평구,37.60408794999999,126.93172334972787,"녹번동, 은평구, 서울특별시, 대한민국",boundary,administrative
불광동,대한민국 서울특별시 은평구,37.619423600000005,126.935404630097,"불광동, 은평구, 서울특별시, 대한민국",boundary,legal
갈현동,대한민국 서울특별시 은평구,37.62089975,126.9127556896614,"갈현동, 은평구, 서울특별시, 대한민국",boundary,legal
구산동,대한민국 서울특별시 은평구,37.61228115,126.9082658298626,"구산동, 은평구, 서울특별시, 대한민국",boundary,administrative
대조동,대한민국 서울특별시 은평구,37.61261,126.92278351858204,"대조동, 은평구, 서울특별시, 대한민국",boundary,administrative
응암동,대한민국 서울특별시 은평구,37.59265725,126.9216113631233,"응암동, 은평구, 서울특별시, 대한민국",boundary,legal
역촌동,대한민국 서울특별시 은평구,37.60499415,126.9148855778837,"역촌동, 은평구, 서울특별시, 대한민국",boundary,administrative
신사동,대한민국 서울특별시 강남구,37.52232055,127.02770186675215,"신사동, 강남구, 서울특별시, 대한민국",boundary,administrative
증산동,대한민국 서울특별시 은평구,37.58273085,126.90536408558992,"증산동, 은평구, 서울특별시, 대한민국",boundary,legal
진관동,대한민국 서울특별시 은평구,37.642116900000005,126.93543045855546,"진관동, 은평구, 서울특별시, 대한민국",boundary,administrative
충정로2가,서울특별시 서대문구 충현동,37.56423,126.96346,"충정로2가, 충현동, 서대문구, 서울특별시, 03737, 대한민국",place,quarter
충정로3가,서울특별시 서대문구 충현동,37.5618374,126.9616577,"충정로3가, 충현동, 서대문구, 서울특별시, 03751, 대한민국",place,quarter
합동,서울특별시 서대문구 충현동,37.56092,126.96575,"합동, 충현동, 서대문구, 서울특별시, 03742, 대한민국",place,quarter
미근동,서울특별시 서대문구 충현동,37.56343,126.96689,"미근동, 충현동, 서대문구, 서울특별시, 03739, 대한민국",place,quarter
냉천동,서울특별시 서대문구 천연동,37.56644,126.96208,"냉천동, 천연동, 서대문구, 서울특별시, 03745, 대한민국",place,quarter
천연동,대한민국 서울특별시 서대문구,37.5682303,126.9605136,"천연동, 서대문구, 서울특별시, 대한민국",boundary,administrative
옥천동,대한민국 서울특별시 서대문구,37.56921495,126.95781092545909,"옥천동, 서대문구, 서울특별시, 대한민국",boundary,legal
영천동,제주특별자치도 서귀포시,33.3069335,126.57760212380028,"영천동, 서귀포시, 제주특별자치도, 63603, 대한민국",boundary,administrative
현저동,서울특별시 서대문구 천연동,37.57386,126.9541,"현저동, 천연동, 서대문구, 서울특별시, 03030, 대한민국",place,quarter
북아현동,대한민국 서울특별시 서대문구,37.55947205,126.9552493630483,"북아현동, 서대문구, 서울특별시, 대한민국",boundary,administrative
홍제동,서울특별시 서대문구 홍제동,37.5871,126.94676,"홍제동, 홍제2동, 서대문구, 서울특별시, 03646, 대한민국",place,quarter
대현동,대한민국 대구광역시 북구,35.88326,128.60829,"대현동, 북구, 대구광역시, 대한민국",boundary,administrative
대신동,대한민국 대구광역시 중구,35.8669269,128.5793045,"대신동, 중구, 대구광역시, 대한민국",boundary,administrative
신촌동,대한민국 서울특별시 서대문구,37.5662284,126.94291975147866,"신촌동, 서대문구, 서울특별시, 대한민국",boundary,administrative
봉원동,서울특별시 서대문구 신촌동,37.57217,126.94662,"봉원동, 신촌동, 서대문구, 서울특별시, 03721, 대한민국",place,quarter
창천동,서울특별시 서대문구 신촌동,37.55874195,126.9342603908732,"창천동, 신촌동, 서대문구, 서울특별시, 대한민국",boundary,legal
연희동,대한민국 서울특별시 서대문구,37.57234,126.93084,"연희동, 서대문구, 서울특별시, 대한민국",boundary,administrative
홍은동,대한민국 서울특별시 서대문구,37.5933933,126.93759641568693,"홍은동, 서대문구, 서울특별시, 대한민국",boundary,legal
북가좌동,대한민국 서울특별시 서대문구,37.5789959,126.91034380608794,"북가좌동, 서대문구, 서울특별시, 대한민국",boundary,legal
남가좌동,대한민국 서울특별시 서대문구,37.57663705,126.92106500393952,"남가좌동, 서대문구, 서울특별시, 대한민국",boundary,legal
아현동,대한민국 서울특별시 마포구,37.550547,126.9524638904238,"아현동, 마포구, 서울특별시, 대한민국",boundary,administrative
공덕동,대한민국 서울특별시 마포구,37.54992705,126.95928971994924,"공덕동, 마포구, 서울특별시, 대한민국",boundary,administrative
신공덕동,마포구 공덕동 통,37.5447,126.95606,"신공덕동, 35통, 공덕동, 마포구, 서울특별시, 04209, 대한민국",place,quarter
도화동,대한민국 서울특별시 마포구,37.5386394,126.9492428212704,"도화동, 마포구, 서울특별시, 대한민국",boundary,administrative
용강동,대한민국 서울특별시 마포구,37.5415852,126.94263151869308,"용강동, 마포구, 서울특별시, 대한민국",boundary,administrative
토정동,서울특별시 마포구 용강동,37.5401495,126.941228,"토정동, 용강동, 마포구, 서울특별시, 04165, 대한민국",place,quarter
마포동,서울특별시 마포구 도화동,37.53672,126.94288,"마포동, 도화동, 마포구, 서울특별시, 04178, 대한민국",place,quarter
대흥동,대한민국 대전광역시 중구,36.3227747,127.4254193,"대흥동, 중구, 대전광역시, 대한민국",boundary,administrative
염리동,대한민국 서울특별시 마포구,37.55018115,126.9478720005446,"염리동, 마포구, 서울특별시, 대한민국",boundary,administrative
노고산동,마포구 대흥동 통,37.5536471,126.9374998,"노고산동, 20통, 대흥동, 마포구, 서울특별시, 04101, 대한민국",place,quarter
신수동,대한민국 서울특별시 마포구,37.54620345,126.9359375116903,"신수동, 마포구, 서울특별시, 대한민국",boundary,administrative
현석동,서울특별시 마포구 신수동,37.54254,126.93469,"현석동, 신수동, 마포구, 서울특별시, 04088, 대한민국",place,quarter
구수동,서울특별시 마포구 신수동,37.54616,126.93299,"구수동, 신수동, 마포구, 서울특별시, 04087, 대한민국",place,quarter
창전동,마포구 서강동 통,37.55007,126.92938,"창전동, 10통, 서강동, 마포구, 서울특별시, 04069, 대한민국",place,quarter
상수동,마포구 서강동 통,37.54743,126.92473,"상수동, 26통, 서강동, 마포구, 서울특별시, 04067, 대한민국",place,quarter
하중동,서울특별시 마포구 서강동,37.54365,126.92838,"하중동, 서강동, 마포구, 서울특별시, 04093, 대한민국",place,quarter
신정동,대한민국 서울특별시 양천구,37.5163163,126.86344546388932,"신정동, 양천구, 서울특별시, 대한민국",boundary,legal
당인동,서울특별시 마포구 서강동,37.54367,126.91999,"당인동, 서강동, 마포구, 서울특별시, 04073, 대한민국",place,quarter
서교동,대한민국 서울특별시 마포구,37.555071100000006,126.92382435332011,"서교동, 마포구, 서울특별시, 대한민국",boundary,administrative
동교동,서울특별시 마포구 서교동,37.5571419,126.9261901,"동교동, 서교동, 마포구, 서울특별시, 04051, 대한민국",place,quarter
합정동,대한민국 서울특별시 마포구,37.5477846,126.90956355330226,"합정동, 마포구, 서울특별시, 대한민국",boundary,administrative
망원동,대한민국 서울특별시 마포구,37.556024050000005,126.90097513605556,"망원동, 마포구, 서울특별시, 대한민국",boundary,legal
연남동,대한민국 서울특별시 마포구,37.56265955,126.9226107018927,"연남동, 마포구, 서울특별시, 대한민국",boundary,administrative
성산동,서울특별시 마포구 성산동,37.56775,126.90263,"성산동, 성산2동, 마포구, 서울특별시, 03938, 대한민국",place,quarter
중동,중동 중동 해운대로,35.1666759,129.1678074,"중동, 해운대로, 중동, 중1동, 해운대구, 부산광역시, 48096, 대한민국",railway,station
상암동,대한민국 서울특별시 마포구,37.57157235,126.87280634672528,"상암동, 마포구, 서울특별시, 대한민국",boundary,administrative
신정동,대한민국 서울특별시 양천구,37.5163163,126.86344546388932,"신정동, 양천구, 서울특별시, 대한민국",boundary,legal
목동,양천구 목동 오목로,37.5261241,126.8645174,"목동, 오목로, 목1동, 양천구, 서울특별시, 07993, 대한민국",railway,station
신월동,대한민국 서울특별시 양천구,37.5290495,126.8335466181214,"신월동, 양천구, 서울특별시, 대한민국",boundary,legal
염창동,서울특별시 강서구,37.55534725,126.87252829335478,"염창동, 강서구, 서울특별시, 07556, 대한민국",boundary,administrative
등촌동,대한민국 서울특별시 강서구,37.552056,126.8615649334846,"등촌동, 강서구, 서울특별시, 대한민국",boundary,legal
화곡동,대한민국 서울특별시 강서구,37.542134,126.84417516520308,"화곡동, 강서구, 서울특별시, 대한민국",boundary,legal
가양동,대한민국 서울특별시 강서구,37.56788385,126.84984883679246,"가양동, 강서구, 서울특별시, 대한민국",boundary,legal
마곡동,대한민국 서울특별시 강서구,37.5700377,126.83017363145169,"마곡동, 강서구, 서울특별시, 대한민국",boundary,legal
내발산동,서울특별시 강서구 우장산동,37.5539189,126.8377194,"내발산동, 우장산동, 강서구, 서울특별시, 07681, 대한민국",place,quarter
외발산동,서울특별시 강서구 발산동,37.5476771,126.818987,"외발산동, 발산1동, 강서구, 서울특별시, 07506, 대한민국",place,quarter
공항동,대한민국 서울특별시 강서구,37.5556799,126.79312568532688,"공항동, 강서구, 서울특별시, 대한민국",boundary,administrative
방화동,서울특별시 강서구 방화동,37.57682,126.81422,"방화동, 방화3동, 강서구, 서울특별시, 07511, 대한민국",place,quarter
개화동,서울특별시 강서구 방화동,37.586723,126.8041792,"개화동, 방화2동, 강서구, 서울특별시, 07511, 대한민국",place,quarter
과해동,서울특별시 강서구 공항동,37.56665,126.78817,"과해동, 공항동, 강서구, 서울특별시, 07612, 대한민국",place,quarter
오곡동,서울특별시 강서구 공항동,37.55273,126.78283,"오곡동, 공항동, 강서구, 서울특별시, 14400, 대한민국",place,quarter
오쇠동,서울특별시 강서구 공항동,37.54322,126.79821,"오쇠동, 공항동, 강서구, 서울특별시, 14401, 대한민국",place,quarter
신도림동,대한민국 서울특별시 구로구,37.50941,126.88285,"신도림동, 구로구, 서울특별시, 대한민국",boundary,administrative
구로동,대한민국 서울특별시 구로구,37.4936479,126.8825403511477,"Guro-dong, 구로구, 서울특별시, 대한민국",boundary,legal
가리봉동,서울특별시 구로구,37.4838745,126.8889756,"가리봉동, 구로구, 서울특별시, 08321, 대한민국",boundary,administrative
고척동,대한민국 서울특별시 구로구,37.5023851,126.86285013540632,"고척동, 구로구, 서울특별시, 대한민국",boundary,legal
개봉동,대한민국 서울특별시 구로구,37.49461445,126.85621083394555,"개봉동, 구로구, 서울특별시, 대한민국",boundary,legal
오류동,오류동 경인로길,37.4943466,126.8445367,"오류동, 13, 경인로20길, 오류1동, 구로구, 서울특별시, 08270, 대한민국",railway,station
궁동,서울특별시 구로구 수궁동,37.5006694,126.8280726,"궁동, 수궁동, 구로구, 서울특별시, 08248, 대한민국",place,quarter
온수동,서울특별시 구로구 수궁동,37.4945527,126.820444,"온수동, 수궁동, 구로구, 서울특별시, 08259, 대한민국",place,quarter
천왕동,구로구 오류동 천왕로,37.4809508,126.8389546,"우리교회, 천왕로, 오류2동, 구로구, 서울특별시, 08364, 대한민국",amenity,place_of_worship
항동,서울특별시 구로구 오류동,37.4813204,126.8244434,"항동, 오류2동, 구로구, 서울특별시, 08368, 대한민국",place,quarter
가산동,대한민국 서울특별시 금천구,37.47532525,126.88639535805152,"가산동, 금천구, 서울특별시, 대한민국",boundary,administrative
독산동,서울특별시 금천구 독산동,37.468399,126.8979571,"독산동, 독산4동, 금천구, 서울특별시, 08584, 대한민국",place,quarter
시흥동,서울특별시 금천구 시흥동,37.4507049,126.9085555,"시흥동, 시흥5동, 금천구, 서울특별시, 08573, 대한민국",place,quarter
영등포동,대한민국 서울특별시 영등포구,37.5222786,126.90785736304468,"영등포동, 영등포구, 서울특별시, 대한민국",boundary,administrative
영등포동1가,서울특별시 영등포구 영등포본동,37.51509,126.91423,"영등포동1가, 영등포본동, 영등포구, 서울특별시, 07317, 대한민국",place,quarter
영등포동2가,서울특별시 영등포구 영등포동,37.52125,126.91222,"영등포동2가, 영등포동, 영등포구, 서울특별시, 07248, 대한민국",place,quarter
영등포동3가,서울특별시 영등포구 영등포동,37.518216,126.9075556,"영등포동3가, 영등포동, 영등포구, 서울특별시, 07304, 대한민국",place,quarter
영등포동4가,서울특별시 영등포구 영등포동,37.51777,126.90368,"영등포동4가, 영등포동, 영등포구, 서울특별시, 07304, 대한민국",place,quarter
영등포동5가,서울특별시 영등포구 영등포동,37.52095,126.9066,"영등포동5가, 영등포동, 영등포구, 서울특별시, 07250, 대한민국",place,quarter
영등포동6가,서울특별시 영등포구 영등포동,37.52153,126.90299,"영등포동6가, 영등포동, 영등포구, 서울특별시, 07245, 대한민국",place,quarter
영등포동7가,,37.5246695,126.9073675901746,"영등포동7가, 대한민국",place,village
영등포동8가,서울특별시 영등포구 영등포동,37.52872,126.90411,"영등포동8가, 영등포동, 영등포구, 서울특별시, 07229, 대한민국",place,quarter
여의도동,대한민국 서울특별시 영등포구,37.5284646,126.93005217324124,"여의도동, 영등포구, 서울특별시, 대한민국",boundary,legal
당산동1가,서울특별시 영등포구 당산동,37.5223052,126.8990946,"당산동1가, 당산1동, 영등포구, 서울특별시, 07264, 대한민국",place,quarter
당산동2가,서울특별시 영등포구 당산동,37.5224036,126.89391,"당산동2가, 당산1동, 영등포구, 서울특별시, 07263, 대한민국",place,quarter
당산동3가,서울특별시 영등포구 당산동,37.52616,126.89724,"당산동3가, 당산1동, 영등포구, 서울특별시, 07261, 대한민국",place,quarter
당산동4가,서울특별시 영등포구 당산동,37.52915,126.89894,"당산동4가, 당산2동, 영등포구, 서울특별시, 07220, 대한민국",place,quarter
당산동5가,서울특별시 영등포구 당산동,37.53208,126.90102,"당산동5가, 당산2동, 영등포구, 서울특별시, 07213, 대한민국",place,quarter
당산동6가,서울특별시 영등포구 양평동,37.53644,126.89902,"당산동6가, 양평2동, 영등포구, 서울특별시, 07222, 대한민국",place,quarter
당산동,서울특별시 영등포구 당산동,37.5346241,126.9065487,"당산동, 당산2동, 영등포구, 서울특별시, 07223, 대한민국",place,quarter
도림동,서울특별시 영등포구,37.5082619,126.8993866115764,"도림동, 영등포구, 서울특별시, 07372, 대한민국",boundary,legal
문래동1가,서울특별시 영등포구 문래동,37.51217,126.89799,"문래동1가, 문래동, 영등포구, 서울특별시, 07299, 대한민국",place,quarter
문래동2가,서울특별시 영등포구 문래동,37.5128036,126.8929788,"문래동2가, 문래동, 영등포구, 서울특별시, 07290, 대한민국",place,quarter
문래동3가,서울특별시 영등포구 문래동,37.51702,126.89591,"문래동3가, 문래동, 영등포구, 서울특별시, 07290, 대한민국",place,quarter
문래동4가,서울특별시 영등포구 문래동,37.514477,126.8898892,"문래동4가, 문래동, 영등포구, 서울특별시, 07288, 대한민국",place,quarter
문래동5가,서울특별시 영등포구 문래동,37.51588,126.88411,"문래동5가, 문래동, 영등포구, 서울특별시, 07285, 대한민국",place,quarter
문래동6가,서울특별시 영등포구 문래동,37.51938,126.88467,"문래동6가, 문래동, 영등포구, 서울특별시, 07283, 대한민국",place,quarter
양평동1가,서울특별시 영등포구 양평동,37.52309,126.88868,"양평동1가, 양평1동, 영등포구, 서울특별시, 07272, 대한민국",place,quarter
양평동2가,서울특별시 영등포구 양평동,37.52357,126.88288,"양평동2가, 양평1동, 영등포구, 서울특별시, 07283, 대한민국",place,quarter
양평동3가,서울특별시 영등포구 양평동,37.5282501,126.8914746,"양평동3가, 양평1동, 영등포구, 서울특별시, 07255, 대한민국",place,quarter
양평동4가,서울특별시 영등포구 양평동,37.53689,126.89638,"양평동4가, 양평2동, 영등포구, 서울특별시, 07206, 대한민국",place,quarter
양평동5가,서울특별시 영등포구 양평동,37.53906,126.8928,"양평동5가, 양평2동, 영등포구, 서울특별시, 07204, 대한민국",place,quarter
양평동6가,서울특별시 영등포구 양평동,37.5418285,126.890214,"양평동6가, 양평2동, 영등포구, 서울특별시, 07202, 대한민국",place,quarter
양화동,서울특별시 영등포구 양평동,37.5471911,126.8861329,"양화동, 양평2동, 영등포구, 서울특별시, 07969, 대한민국",place,quarter
신길동,대한민국 서울특별시 영등포구,37.5065214,126.91191077679022,"신길동, 영등포구, 서울특별시, 대한민국",boundary,legal
대림동,대한민국 서울특별시 영등포구,37.49672015,126.90112314841656,"대림동, 영등포구, 서울특별시, 대한민국",boundary,legal
양평동,대한민국 서울특별시 영등포구,37.5384352,126.89348681149838,"양평동, 영등포구, 서울특별시, 대한민국",boundary,legal
노량진동,대한민국 서울특별시 동작구,37.51261305,126.9421239952394,"노량진동, 동작구, 서울특별시, 대한민국",boundary,legal
상도동,서울특별시 동작구 상도동,37.4988159,126.9441045,"상도동, 상도4동, 동작구, 서울특별시, 07047, 대한민국",place,quarter
상도1동,대한민국 서울특별시 동작구,37.49993085,126.95219024134828,"상도1동, 동작구, 서울특별시, 대한민국",boundary,administrative
본동,대한민국 대구광역시 달서구,35.8354002,128.5397293,"본동, 달서구, 대구광역시, 대한민국",boundary,administrative
흑석동,대한민국 서울특별시 동작구,37.5064393,126.963687,"흑석동, 동작구, 서울특별시, 대한민국",boundary,administrative
동작동,서울특별시 동작구 사당동,37.5028911,126.9775288,"동작동, 사당2동, 동작구, 서울특별시, 06694, 대한민국",place,quarter
사당동,대한민국 서울특별시 동작구,37.48507995,126.97049486573836,"사당동, 동작구, 서울특별시, 대한민국",boundary,legal
대방동,대한민국 서울특별시 동작구,37.5067997,126.92913492678356,"대방동, 동작구, 서울특별시, 대한민국",boundary,legal
신대방동,대한민국 서울특별시 동작구,37.4914562,126.91666880567504,"신대방동, 동작구, 서울특별시, 대한민국",boundary,legal
봉천동,대한민국 서울특별시 관악구,37.47500635,126.95714040086992,"봉천동, 관악구, 서울특별시, 대한민국",boundary,legal
신림동,,37.462670450000005,126.9347267347826,"신림동, 서울특별시, 대한민국",boundary,legal
남현동,대한민국 서울특별시 관악구,37.46205345,126.9793641246471,"남현동, 관악구, 서울특별시, 대한민국",boundary,legal
방배동,대한민국 서울특별시 서초구,37.47879375,126.992922532436,"방배동, 서초구, 서울특별시, 대한민국",boundary,legal
양재동,대한민국 서울특별시 서초구,37.4690298,127.03879366778062,"양재동, 서초구, 서울특별시, 대한민국",boundary,legal
우면동,서울특별시 서초구 양재동,37.4647545,127.0188666,"우면동, 양재1동, 서초구, 서울특별시, 06765, 대한민국",place,quarter
원지동,서울특별시 서초구 양재동,37.44499,127.04933,"원지동, 양재2동, 서초구, 서울특별시, 06794, 대한민국",place,quarter
잠원동,대한민국 서울특별시 서초구,37.5182544,127.01240284968917,"잠원동, 서초구, 서울특별시, 대한민국",boundary,administrative
반포동,대한민국 서울특별시 서초구,37.5040052,127.00179843048132,"반포동, 서초구, 서울특별시, 대한민국",boundary,legal
서초동,대한민국 서울특별시 서초구,37.48844065,127.01644172675934,"서초동, 서초구, 서울특별시, 대한민국",boundary,legal
내곡동,서울특별시 서초구 안골,37.4534615,127.0664442,"내곡동, 안골, 서초구, 서울특별시, 대한민국",boundary,administrative
염곡동,서울특별시 서초구 내곡동,37.4634,127.05272,"염곡동, 내곡동, 서초구, 서울특별시, 06784, 대한민국",place,quarter
신원동,대한민국 서울특별시 관악구,37.47936915,126.92694765358326,"신원동, 관악구, 서울특별시, 대한민국",boundary,administrative
역삼동,서울특별시 강남구 역삼동,37.49988,127.03856,"역삼동, 역삼2동, 강남구, 서울특별시, 06220, 대한민국",place,quarter
개포동,개포동 달터마을 개포로,37.4891184,127.0660366,"개포동, 개포로, 달터마을, 개포2동, 강남구, 서울특별시, 06329, 대한민국",railway,stop
청담동,대한민국 서울특별시 강남구,37.52575355,127.0523217253381,"청담동, 강남구, 서울특별시, 대한민국",boundary,administrative
삼성동,대한민국 서울특별시 강남구,37.5137422,127.05544630232768,"삼성동, 강남구, 서울특별시, 대한민국",boundary,legal
대치동,대한민국 서울특별시 강남구,37.4989205,127.0657856909771,"대치동, 강남구, 서울특별시, 대한민국",boundary,legal
신사동,대한민국 서울특별시 강남구,37.52232055,127.02770186675215,"신사동, 강남구, 서울특별시, 대한민국",boundary,administrative
논현동,서울특별시 강남구 논현동,37.5123018,127.0294935,"논현동, 논현1동, 강남구, 서울특별시, 06046, 대한민국",place,quarter
압구정동,대한민국 서울특별시 강남구,37.5300432,127.0313346,"압구정동, 강남구, 서울특별시, 대한민국",boundary,administrative
세곡동,대한민국 서울특별시 강남구,37.4708665,127.10335105674744,"세곡동, 강남구, 서울특별시, 대한민국",boundary,administrative
자곡동,서울특별시 강남구 세곡동,37.4725141,127.0987522,"자곡동, 세곡동, 강남구, 서울특별시, 06372, 대한민국",place,quarter
율현동,서울특별시 강남구 세곡동,37.4714,127.1113,"율현동, 세곡동, 강남구, 서울특별시, 06378, 대한민국",place,quarter
일원동,서울특별시 강남구 일원본동,37.48754,127.08705,"일원동, 일원본동, 강남구, 서울특별시, 06351, 대한민국",place,quarter
수서동,대한민국 서울특별시 강남구,37.48445,127.09838,"수서동, 강남구, 서울특별시, 대한민국",boundary,administrative
도곡동,서울특별시 강남구 도곡동,37.4878395,127.0438569,"도곡동, 도곡1동, 강남구, 서울특별시, 06296, 대한민국",place,quarter
잠실동,서울특별시 송파구 잠실동,37.5122807,127.0855986,"잠실동, 잠실2동, 송파구, 서울특별시, 05501, 대한민국",place,quarter
신천동,대한민국 경기도 시흥시,37.43961375,126.77885557449832,"신천동, 시흥시, 경기도, 대한민국",boundary,administrative
풍납동,대한민국 서울특별시 송파구,37.53374445,127.115031753922,"풍납동, 송파구, 서울특별시, 대한민국",boundary,administrative
송파동,대한민국 서울특별시 송파구,37.504264250000006,127.11570790558729,"송파동, 송파구, 서울특별시, 대한민국",boundary,administrative
석촌동,대한민국 서울특별시 송파구,37.5024827,127.103495,"석촌동, 송파구, 서울특별시, 대한민국",boundary,administrative
삼전동,대한민국 서울특별시 송파구,37.5014521,127.0901512,"삼전동, 송파구, 서울특별시, 대한민국",boundary,administrative
가락동,대한민국 서울특별시 송파구,37.49488385,127.11878497546454,"가락동, 송파구, 서울특별시, 대한민국",boundary,administrative
문정동,대한민국 서울특별시 송파구,37.4850937,127.11931437136715,"문정동, 송파구, 서울특별시, 대한민국",boundary,administrative
장지동,대한민국 서울특별시 송파구,37.4798337,127.1310225,"장지동, 송파구, 서울특별시, 대한민국",boundary,administrative
방이동,대한민국 서울특별시 송파구,37.51130495,127.11879300480555,"방이동, 송파구, 서울특별시, 대한민국",boundary,administrative
오금동,대한민국 경기도 산본동,37.3484254,126.9293833882768,"오금동, 산본동, 경기도, 대한민국",boundary,administrative
거여동,대한민국 서울특별시 송파구,37.490687,127.1469160202002,"거여동, 송파구, 서울특별시, 대한민국",boundary,administrative
마천동,서울특별시 송파구 마천동,37.49803,127.15167,"마천동, 마천2동, 송파구, 서울특별시, 05751, 대한민국",place,quarter
명일동,서울특별시 강동구 명일동,37.54841,127.15158,"명일동, 명일2동, 강동구, 서울특별시, 05268, 대한민국",place,quarter
고덕동,경기도 평택시,37.0480854,127.0363555,"고덕동, 평택시, 경기도, 18007, 대한민국",place,village
상일동,강동구 상일동 고덕로,37.5567762,127.1667789,"상일동, 고덕로, 상일1동, 강동구, 서울특별시, 05224, 대한민국",railway,station
길동,강동구 길동 양재대로,37.5383683,127.1402049,"길동, 양재대로, 길동, 강동구, 서울특별시, 05350, 대한민국",railway,station
둔촌동,강동구 성내동 양재대로,37.5278024,127.1362433,"둔촌동, 양재대로, 성내3동, 강동구, 서울특별시, 05376, 대한민국",railway,station
암사동,서울특별시 강동구 암사동,37.5582352,127.1308542,"암사동, 암사3동, 강동구, 서울특별시, 05241, 대한민국",place,quarter
성내동,서울특별시 강동구 성내동,37.52998,127.12875,"성내동, 성내1동, 강동구, 서울특별시, 05390, 대한민국",place,quarter
천호동,서울특별시 강동구 천호동,37.54294,127.12733,"천호동, 천호2동, 강동구, 서울특별시, 05244, 대한민국",place,quarter
강일동,대한민국 서울특별시 강동구,37.56723,127.1713,"강일동, 강동구, 서울특별시, 대한민국",boundary,administrative
영주동,부산광역시 중구 영주동,35.11209,129.03294,"영주동, 영주1동, 중구, 부산광역시, 48915, 대한민국",place,quarter
대창동1가,부산광역시 중구 중앙동,35.10823,129.03627,"대창동1가, 중앙동, 중구, 부산광역시, 48924, 대한민국",place,quarter
대창동2가,부산광역시 중구 영주동,35.11069,129.03732,"대창동2가, 영주1동, 중구, 부산광역시, 48936, 대한민국",place,quarter
중앙동1가,부산광역시 중구,35.104,129.0397,"중앙동1가, 중구, 부산광역시, 48929, 대한민국",place,quarter
중앙동2가,부산광역시 중구 중앙동,35.10218,129.03552,"중앙동2가, 중앙동, 중구, 부산광역시, 48956, 대한민국",place,quarter
중앙동3가,부산광역시 중구 중앙동,35.10353,129.03521,"중앙동3가, 중앙동, 중구, 부산광역시, 48929, 대한민국",place,quarter
중앙동4가,부산광역시 중구 중앙동,35.10788,129.03738,"중앙동4가, 중앙동, 중구, 부산광역시, 48938, 대한민국",place,quarter
중앙동5가,부산광역시 중구 중앙동,35.10239,129.0370126,"중앙동5가, 중앙동, 중구, 부산광역시, 48929, 대한민국",place,quarter
중앙동6가,부산광역시 중구 중앙동,35.09981,129.03706,"중앙동6가, 중앙동, 중구, 부산광역시, 48955, 대한민국",place,quarter
중앙동7가,부산광역시 중구 중앙동,35.0973,129.03637,"중앙동7가, 중앙동, 중구, 부산광역시, 48954, 대한민국",place,quarter
동광동1가,부산광역시 중구 동광동,35.09949,129.03558,"동광동1가, 동광동, 중구, 부산광역시, 48955, 대한민국",place,quarter
동광동2가,부산광역시 중구 동광동,35.10016,129.03442,"동광동2가, 동광동, 중구, 부산광역시, 48955, 대한민국",place,quarter
동광동3가,부산광역시 중구 동광동,35.10186,129.03427,"동광동3가, 동광동, 중구, 부산광역시, 48956, 대한민국",place,quarter
동광동4가,부산광역시 중구 동광동,35.10334,129.03421,"동광동4가, 동광동, 중구, 부산광역시, 48927, 대한민국",place,quarter
동광동5가,부산광역시 중구 동광동,35.10746,129.03427,"동광동5가, 동광동, 중구, 부산광역시, 48924, 대한민국",place,quarter
대청동1가,부산광역시 중구 대청동,35.10387,129.03277,"대청동1가, 대청동, 중구, 부산광역시, 48933, 대한민국",place,quarter
대청동2가,부산광역시 중구 대청동,35.1021182,129.0309723,"대청동2가, 대청동, 중구, 부산광역시, 48948, 대한민국",place,quarter
대청동3가,부산광역시 중구 대청동,35.10316,129.02893,"대청동3가, 대청동, 중구, 부산광역시, 48933, 대한민국",place,quarter
대청동4가,부산광역시 중구 대청동,35.10634,129.02998,"대청동4가, 대청동, 중구, 부산광역시, 48933, 대한민국",place,quarter
보수동1가,부산광역시 중구 보수동,35.10617,129.02549,"보수동1가, 보수동, 중구, 부산광역시, 48959, 대한민국",place,quarter
보수동2가,부산광역시 중구 보수동,35.10516,129.02343,"보수동2가, 보수동, 중구, 부산광역시, 48959, 대한민국",place,quarter
보수동3가,부산광역시 중구 보수동,35.1043,129.02247,"보수동3가, 보수동, 중구, 부산광역시, 48959, 대한민국",place,quarter
부평동1가,부산광역시 중구 부평동,35.10076,129.02708,"부평동1가, 부평동, 중구, 부산광역시, 48978, 대한민국",place,quarter
부평동2가,부산광역시 중구 부평동,35.1007,129.0258,"부평동2가, 부평동, 중구, 부산광역시, 48978, 대한민국",place,quarter
부평동3가,부산광역시 중구 부평동,35.10158,129.0245,"부평동3가, 부평동, 중구, 부산광역시, 48978, 대한민국",place,quarter
부평동4가,부산광역시 중구 부평동,35.10209,129.02284,"부평동4가, 부평동, 중구, 부산광역시, 49241, 대한민국",place,quarter
신창동1가,부산광역시 중구 광복동,35.10125,129.03024,"신창동1가, 광복동, 중구, 부산광역시, 48948, 대한민국",place,quarter
신창동2가,부산광역시 중구 광복동,35.10134,129.0294,"신창동2가, 광복동, 중구, 부산광역시, 48948, 대한민국",place,quarter
신창동3가,부산광역시 중구 광복동,35.10138,129.02882,"신창동3가, 광복동, 중구, 부산광역시, 48948, 대한민국",place,quarter
신창동4가,부산광역시 중구 광복동,35.10123,129.02835,"신창동4가, 광복동, 중구, 부산광역시, 48978, 대한민국",place,quarter
창선동1가,부산광역시 중구 광복동,35.09954,129.03045,"창선동1가, 광복동, 중구, 부산광역시, 48947, 대한민국",place,quarter
창선동2가,부산광역시 중구 광복동,35.09962,129.02876,"창선동2가, 광복동, 중구, 부산광역시, 48947, 대한민국",place,quarter
광복동1가,부산광역시 중구 광복동,35.0987,129.03442,"광복동1가, 광복동, 중구, 부산광역시, 48954, 대한민국",place,quarter
광복동2가,부산광역시 중구 광복동,35.0990512,129.0322644,"광복동2가, 광복동, 중구, 부산광역시, 48984, 대한민국",place,quarter
광복동3가,부산광역시 중구 광복동,35.10039,129.03137,"광복동3가, 광복동, 중구, 부산광역시, 48947, 대한민국",place,quarter
남포동1가,부산광역시 중구 남포동,35.097341,129.0350381,"남포동1가, 남포동, 중구, 부산광역시, 48954, 대한민국",place,quarter
남포동2가,부산광역시 중구 남포동,35.0984,129.03236,"남포동2가, 남포동, 중구, 부산광역시, 48984, 대한민국",place,quarter
남포동3가,부산광역시 중구 남포동,35.0990355,129.0294188,"남포동3가, 남포동, 중구, 부산광역시, 48953, 대한민국",place,quarter
남포동4가,부산광역시 중구 남포동,35.09765,129.03178,"남포동4가, 남포동, 중구, 부산광역시, 48984, 대한민국",place,quarter
남포동5가,부산광역시 중구 남포동,35.09784,129.02951,"남포동5가, 남포동, 중구, 부산광역시, 48983, 대한민국",place,quarter
남포동6가,부산광역시 중구 남포동,35.09748,129.02702,"남포동6가, 남포동, 중구, 부산광역시, 48981, 대한민국",place,quarter
동대신동1가,부산광역시 서구 동대신동,35.11024,129.02232,"동대신동1가, 동대신1동, 서구, 부산광역시, 49221, 대한민국",place,quarter
동대신동2가,부산광역시 서구 동대신동,35.11355,129.0229,"동대신동2가, 동대신2동, 서구, 부산광역시, 49215, 대한민국",place,quarter
동대신동3가,부산광역시 서구 동대신동,35.11625,129.01882,"동대신동3가, 동대신3동, 서구, 부산광역시, 49212, 대한민국",place,quarter
서대신동1가,,,,,,
서대신동2가,부산광역시 서구 서대신동,35.1096,129.01228,"서대신동2가, 서대신1동, 서구, 부산광역시, 49228, 대한민국",place,quarter
서대신동3가,부산광역시 서구 서대신동,35.1169101,129.0114067,"서대신동3가, 서대신4동, 서구, 부산광역시, 49203, 대한민국",place,quarter
부용동1가,부산광역시 서구 부민동,35.10662,129.02116,"부용동1가, 부민동, 서구, 부산광역시, 49221, 대한민국",place,quarter
부용동2가,부산광역시 서구 부민동,35.10677,129.01762,"부용동2가, 부민동, 서구, 부산광역시, 49236, 대한민국",place,quarter
부민동1가,부산광역시 서구 부민동,35.10346,129.02058,"부민동1가, 부민동, 서구, 부산광역시, 49236, 대한민국",place,quarter
부민동2가,부산광역시 서구 부민동,35.10277,129.01927,"부민동2가, 부민동, 서구, 부산광역시, 49236, 대한민국",place,quarter
부민동3가,부산광역시 서구 부민동,35.10387,129.01657,"부민동3가, 부민동, 서구, 부산광역시, 49236, 대한민국",place,quarter
토성동1가,부산광역시 서구 충무동,35.09962,129.02302,"토성동1가, 충무동, 서구, 부산광역시, 49246, 대한민국",place,quarter
토성동2가,부산광역시 서구 충무동,35.1007,129.02154,"토성동2가, 충무동, 서구, 부산광역시, 49241, 대한민국",place,quarter
토성동3가,,,,,,
아미동1가,부산광역시 서구 아미동,35.0991427,129.0189689,"아미동1가, 아미동, 서구, 부산광역시, 49245, 대한민국",place,quarter
아미동2가,부산광역시 서구 아미동,35.10033,129.0144,"아미동2가, 아미동, 서구, 부산광역시, 49240, 대한민국",place,quarter
토성동4가,부산광역시 서구 충무동,35.0972822,129.0229596,"토성동4가, 충무동, 서구, 부산광역시, 49246, 대한민국",place,quarter
토성동5가,부산광역시 서구 충무동,35.09748,129.02185,"토성동5가, 충무동, 서구, 부산광역시, 49246, 대한민국",place,quarter
초장동,대한민국 경상남도 진주시,35.21257165,128.10025649109934,"초장동, 진주시, 경상남도, 대한민국",boundary,administrative
충무동1가,부산광역시 서구 충무동,35.09548,129.02423,"충무동1가, 충무동, 서구, 부산광역시, 49256, 대한민국",place,quarter
충무동2가,부산광역시 서구 충무동,35.09531,129.02238,"충무동2가, 충무동, 서구, 부산광역시, 49248, 대한민국",place,quarter
충무동3가,부산광역시 서구 충무동,35.09389,129.02217,"충무동3가, 충무동, 서구, 부산광역시, 49256, 대한민국",place,quarter
남부민동,,35.08705705,129.02128605806723,"남부민동, 부산광역시, 대한민국",boundary,legal
암남동,대한민국 부산광역시 서구,35.0751352,129.0152617,"암남동, 서구, 부산광역시, 대한민국",boundary,administrative
초량동,,35.12020085,129.03734502081485,"초량동, 부산광역시, 대한민국",boundary,legal
수정동,경상남도 진주시,35.1971961,128.08578412957084,"수정동, 진주시, 경상남도, 52751, 대한민국",boundary,legal
좌천동,부산광역시 동구,35.13436765,129.05090525501748,"좌천동, 동구, 부산광역시, 48773, 대한민국",boundary,administrative
범일동,,35.132316450000005,129.0600884293724,"범일동, 부산광역시, 대한민국",boundary,legal
대교동1가,부산광역시 영도구 남항동,35.09269,129.03822,"대교동1가, 남항동, 영도구, 부산광역시, 49037, 대한민국",place,quarter
대교동2가,부산광역시 영도구 남항동,35.09164,129.04109,"대교동2가, 남항동, 영도구, 부산광역시, 49036, 대한민국",place,quarter
대평동1가,부산광역시 영도구 남항동,35.09106,129.03457,"대평동1가, 남항동, 영도구, 부산광역시, 49045, 대한민국",place,quarter
대평동2가,부산광역시 영도구 남항동,35.09231,129.03294,"대평동2가, 남항동, 영도구, 부산광역시, 48984, 대한민국",place,quarter
남항동1가,부산광역시 영도구 남항동,35.09016,129.03938,"남항동1가, 남항동, 영도구, 부산광역시, 49055, 대한민국",place,quarter
남항동2가,부산광역시 영도구 남항동,35.0884,129.03822,"남항동2가, 남항동, 영도구, 부산광역시, 49055, 대한민국",place,quarter
남항동3가,부산광역시 영도구 남항동,35.0857,129.03712,"남항동3가, 남항동, 영도구, 부산광역시, 49047, 대한민국",place,quarter
영선동1가,부산광역시 영도구 영선동,35.09037,129.04403,"영선동1가, 영선1동, 영도구, 부산광역시, 49060, 대한민국",place,quarter
영선동2가,부산광역시 영도구 영선동,35.08821,129.04243,"영선동2가, 영선1동, 영도구, 부산광역시, 49056, 대한민국",place,quarter
영선동3가,부산광역시 영도구 영선동,35.08589,129.0415,"영선동3가, 영선2동, 영도구, 부산광역시, 49056, 대한민국",place,quarter
영선동4가,부산광역시 영도구 영선동,35.08095,129.0435,"영선동4가, 영선2동, 영도구, 부산광역시, 49078, 대한민국",place,quarter
신선동1가,부산광역시 영도구 신선동,35.09053,129.04689,"신선동1가, 신선동, 영도구, 부산광역시, 49060, 대한민국",place,quarter
신선동2가,부산광역시 영도구 신선동,35.08692,129.04689,"신선동2가, 신선동, 영도구, 부산광역시, 49060, 대한민국",place,quarter
신선동3가,,,,,,
봉래동1가,서울특별시 중구 회현동,37.55904,126.97248,"봉래동1가, 회현동, 중구, 서울특별시, 04512, 대한민국",place,quarter
봉래동2가,서울특별시 중구 회현동,37.55661,126.97177,"봉래동2가, 회현동, 중구, 서울특별시, 04509, 대한민국",place,quarter
봉래동3가,부산광역시 영도구 봉래동,35.0934,129.04483,"봉래동3가, 봉래1동, 영도구, 부산광역시, 49005, 대한민국",place,quarter
봉래동4가,부산광역시 영도구 봉래동,35.0919335,129.0496044,"봉래동4가, 봉래2동, 영도구, 부산광역시, 49006, 대한민국",place,quarter
봉래동5가,부산광역시 영도구 봉래동,35.09327,129.05238,"봉래동5가, 봉래2동, 영도구, 부산광역시, 49006, 대한민국",place,quarter
청학동,대한민국 인천 연수구,37.4234771,126.6645224,"청학동, 연수구, 인천, 대한민국",boundary,administrative
동삼동,대한민국 부산광역시 영도구,35.0698371,129.0703119846719,"동삼동, 영도구, 부산광역시, 대한민국",boundary,legal
양정동,대한민국 부산광역시 부산진구,35.17252385,129.0707112888237,"양정동, 부산진구, 부산광역시, 대한민국",boundary,legal
전포동,부산광역시 부산진구 전포동,35.1572828,129.0745022,"전포동, 전포1동, 부산진구, 부산광역시, 47301, 대한민국",place,quarter
부전동,부산광역시 부산진구 부전동,35.1569988,129.058582,"부전동, 부전2동, 부산진구, 부산광역시, 47291, 대한민국",place,quarter
범천동,부산광역시 부산진구 범천동,35.14925,129.05386,"범천동, 범천2동, 부산진구, 부산광역시, 47283, 대한민국",place,quarter
범전동,부산광역시 부산진구 부전동,35.1675752,129.0632799,"범전동, 부전1동, 부산진구, 부산광역시, 47249, 대한민국",place,quarter
연지동,대한민국 부산광역시 부산진구,35.1725741,129.0539533,"연지동, 부산진구, 부산광역시, 대한민국",boundary,administrative
초읍동,대한민국 부산광역시 부산진구,35.1791327,129.0489923,"초읍동, 부산진구, 부산광역시, 대한민국",boundary,administrative
부암동,대한민국 서울특별시 종로구,37.5949602,126.9657272,"부암동, 종로구, 서울특별시, 대한민국",boundary,administrative
당감동,부산광역시 부산진구 당감동,35.1666831,129.033972,"당감동, 당감4동, 부산진구, 부산광역시, 47147, 대한민국",place,quarter
가야동,부산광역시 부산진구 가야동,35.1518451,129.0343533,"가야동, 가야1동, 부산진구, 부산광역시, 47329, 대한민국",place,quarter
개금동,부산광역시 부산진구 개금동,35.1527311,129.0213975,"개금동, 개금1동, 부산진구, 부산광역시, 47323, 대한민국",place,quarter
명장동,부산광역시 동래구 명장동,35.20755,129.10356,"명장동, 명장1동, 동래구, 부산광역시, 47764, 대한민국",place,quarter
안락동,대한민국 부산광역시 동래구,35.19378145,129.10631151684203,"안락동, 동래구, 부산광역시, 대한민국",boundary,legal
칠산동,부산광역시 동래구 복산동,35.2049318,129.0876475,"칠산동, 복산동, 동래구, 부산광역시, 47748, 대한민국",place,quarter
낙민동,부산광역시 동래구 수민동,35.1990492,129.0897188,"낙민동, 수민동, 동래구, 부산광역시, 47879, 대한민국",place,quarter
복천동,부산광역시 동래구 복산동,35.2068337,129.0926141,"복천동, 복산동, 동래구, 부산광역시, 47748, 대한민국",place,quarter
수안동,부산광역시 동래구 수민동,35.2014054,129.0836159,"수안동, 수민동, 동래구, 부산광역시, 47748, 대한민국",place,quarter
명륜동,대한민국 부산광역시 동래구,35.2106872,129.0816077,"명륜동, 동래구, 부산광역시, 대한민국",boundary,administrative
온천동,,36.36404625,127.34539950371274,"온천동, 대전광역시, 대한민국",boundary,legal
사직동,대한민국 서울특별시 종로구,37.5738317,126.97030410681307,"사직동, 종로구, 서울특별시, 대한민국",boundary,administrative
대연동,부산광역시 남구 대연동,35.1343823,129.0938404,"대연동, 대연1동, 남구, 부산광역시, 48504, 대한민국",place,quarter
용호동,대한민국 부산광역시 남구,35.1132835,129.11671851257,"용호동, 남구, 부산광역시, 대한민국",boundary,legal
용당동,대한민국 부산광역시 남구,35.1172098,129.0957209,"용당동, 남구, 부산광역시, 대한민국",boundary,administrative
문현동,부산광역시 남구 문현동,35.1387673,129.0712954,"문현동, 문현3동, 남구, 부산광역시, 48419, 대한민국",place,quarter
우암동,충청북도 청주시 청원구,36.6491506,127.4888956,"우암동, 청원구, 청주시, 충청북도, 28535, 대한민국",boundary,administrative
감만동,부산광역시 남구 감만동,35.1165445,129.0835595,"감만동, 감만1동, 남구, 부산광역시, 48556, 대한민국",place,quarter
금곡동,인천 동구 금창동,37.4725,126.63928,"금곡동, 금창동, 동구, 인천, 22564, 대한민국",place,quarter
화명동,,35.2385762,129.02573814054804,"화명동, 부산광역시, 대한민국",boundary,legal
만덕동,부산광역시 북구 만덕동,35.2116694,129.0355986,"만덕동, 만덕2동, 북구, 부산광역시, 46561, 대한민국",place,quarter
덕천동,부산광역시 북구 덕천동,35.2122143,129.0115542,"덕천동, 덕천1동, 북구, 부산광역시, 46577, 대한민국",place,quarter
구포동,부산광역시 북구 구포동,35.19957,129.00564,"구포동, 구포3동, 북구, 부산광역시, 46633, 대한민국",place,quarter
반송동,,35.227220599999995,129.14626669617024,"반송동, 부산광역시, 대한민국",boundary,legal
석대동,부산광역시 해운대구 반송동,35.22465,129.13194,"석대동, 반송1동, 해운대구, 부산광역시, 48002, 대한민국",place,quarter
반여동,대한민국 부산광역시 해운대구,35.204244,129.13181387194317,"반여동, 해운대구, 부산광역시, 대한민국",boundary,legal
재송동,대한민국 부산광역시 해운대구,35.1843578,129.12774073556506,"재송동, 해운대구, 부산광역시, 대한민국",boundary,legal
우동,,35.17693315,129.14854087324875,"우동, 부산광역시, 대한민국",boundary,legal
중동,중동 중동 해운대로,35.1666759,129.1678074,"중동, 해운대로, 중동, 중1동, 해운대구, 부산광역시, 48096, 대한민국",railway,station
좌동,대한민국 부산광역시 해운대구,35.1859071,129.17545047189262,"좌동, 해운대구, 부산광역시, 대한민국",boundary,legal
송정동,대한민국 서울특별시 성동구,37.55374825,127.06848349493912,"송정동, 성동구, 서울특별시, 대한민국",boundary,administrative
괴정동,대한민국 대전광역시 서구,36.3387125,127.3801571,"괴정동, 서구, 대전광역시, 대한민국",boundary,administrative
당리동,대한민국 부산광역시 사하구,35.1071561,128.9768898,"당리동, 사하구, 부산광역시, 대한민국",boundary,administrative
하단동,부산광역시 사하구 하단동,35.1114947,128.9595583,"하단동, 하단2동, 사하구, 부산광역시, 49305, 대한민국",place,quarter
신평동,부산광역시 사하구 신평동,35.097,128.95831,"신평동, 신평2동, 사하구, 부산광역시, 49429, 대한민국",place,quarter
장림동,대한민국 부산광역시 사하구,35.07582775,128.96848028113112,"장림동, 사하구, 부산광역시, 대한민국",boundary,legal
다대동,대한민국 부산광역시 사하구,35.0524457,128.96950438455153,"다대동, 사하구, 부산광역시, 대한민국",boundary,legal
구평동,부산광역시 사하구,35.0715931,128.9902532,"구평동, 사하구, 부산광역시, 49459, 대한민국",boundary,administrative
감천동,부산광역시 사하구 감천동,35.0885858,129.004687,"감천동, 감천1동, 사하구, 부산광역시, 49374, 대한민국",place,quarter
두구동,부산광역시 금정구 선두구동,35.2903428,129.1134719,"두구동, 선두구동, 금정구, 부산광역시, 46208, 대한민국",place,quarter
노포동,부산광역시 금정구 청룡노포동,35.28884,129.08882,"노포동, 청룡노포동, 금정구, 부산광역시, 46218, 대한민국",place,quarter
청룡동,대한민국 서울특별시 관악구,37.47748995,126.94599986082332,"청룡동, 관악구, 서울특별시, 대한민국",boundary,administrative
남산동,대한민국 부산광역시 금정구,35.2680875,129.0897851,"남산동, 금정구, 부산광역시, 대한민국",boundary,administrative
선동,부산광역시 금정구 선두구동,35.273008,129.1137121,"선동, 선두구동, 금정구, 부산광역시, 46213, 대한민국",place,quarter
오륜동,대한민국 서울특별시 송파구,37.51633,127.12572,"오륜동, 송파구, 서울특별시, 대한민국",boundary,administrative
구서동,부산광역시 금정구 구서동,35.2534821,129.0884377,"구서동, 구서2동, 금정구, 부산광역시, 46231, 대한민국",place,quarter
장전동,대한민국 부산광역시 금정구,35.2362857,129.07519409473443,"장전동, 금정구, 부산광역시, 대한민국",boundary,legal
부곡동,대한민국 경기도 의왕시,37.3237611,126.9568135991738,"부곡동, 의왕시, 경기도, 대한민국",boundary,administrative
서동,대한민국 부산광역시 금정구,35.21886655,129.1031418881441,"서동, 금정구, 부산광역시, 대한민국",boundary,legal
금사동,부산광역시 금정구 금사회동동,35.224064,129.1135607,"금사동, 금사회동동, 금정구, 부산광역시, 46264, 대한민국",place,quarter
회동동,부산광역시 금정구 금사회동동,35.23105,129.12173,"회동동, 금사회동동, 금정구, 부산광역시, 48002, 대한민국",place,quarter
금성동,부산광역시 금정구,35.2507659,129.0563609,"금성동, 금정구, 부산광역시, 46237, 대한민국",boundary,administrative
대저1동,대한민국 부산광역시 강서구,35.2135815,128.9686963,"대저1동, 강서구, 부산광역시, 대한민국",boundary,administrative
대저2동,대한민국 부산광역시 강서구,35.1566767,128.94218,"대저2동, 강서구, 부산광역시, 대한민국",boundary,administrative
강동동,부산광역시 강서구,35.1799005,128.917067,"강동동, 강서구, 부산광역시, 46706, 대한민국",boundary,administrative
명지동,대한민국 부산광역시 강서구,35.1071356,128.9179423,"명지동, 강서구, 부산광역시, 대한민국",boundary,administrative
죽림동,부산광역시 강서구 가락동,35.19816,128.90025,"죽림동, 가락동, 강서구, 부산광역시, 46707, 대한민국",place,quarter
식만동,부산광역시 강서구 가락동,35.2141326,128.9116199,"식만동, 가락동, 강서구, 부산광역시, 50937, 대한민국",place,quarter
죽동동,부산광역시 강서구 가락동,35.2028073,128.8759321,"죽동동, 가락동, 강서구, 부산광역시, 50939, 대한민국",place,quarter
봉림동,부산광역시 강서구 가락동,35.17498,128.89465,"봉림동, 가락동, 강서구, 부산광역시, 46707, 대한민국",place,quarter
송정동,대한민국 서울특별시 성동구,37.55374825,127.06848349493912,"송정동, 성동구, 서울특별시, 대한민국",boundary,administrative
화전동,경기도 고양시 덕양구,37.60313095,126.8841703464922,"화전동, 덕양구, 고양시, 경기도, 대한민국",boundary,administrative
녹산동,대한민국 부산광역시 강서구,35.1116974,128.869001,"녹산동, 강서구, 부산광역시, 대한민국",boundary,administrative
생곡동,부산광역시 강서구 녹산동,35.13059,128.8804026,"생곡동, 녹산동, 강서구, 부산광역시, 46727, 대한민국",place,quarter
구랑동,부산광역시 강서구 녹산동,35.12825,128.85531,"구랑동, 녹산동, 강서구, 부산광역시, 46744, 대한민국",place,quarter
지사동,부산광역시 강서구 녹산동,35.147911,128.828341,"지사동, 녹산동, 강서구, 부산광역시, 51022, 대한민국",place,quarter
미음동,부산광역시 강서구 녹산동,35.1560219,128.8590849,"미음동, 녹산동, 강서구, 부산광역시, 46744, 대한민국",place,quarter
범방동,부산광역시 강서구 녹산동,35.1536023,128.881894,"범방동, 녹산동, 강서구, 부산광역시, 46727, 대한민국",place,quarter
신호동,부산광역시 강서구 녹산동,35.0870837,128.8770511,"신호동, 녹산동, 강서구, 부산광역시, 46759, 대한민국",place,quarter
동선동,대한민국 서울특별시 성북구,37.5936463,127.0182330208464,"동선동, 성북구, 서울특별시, 대한민국",boundary,administrative
성북동,대한민국 서울특별시 성북구,37.59552,126.99215,"성북동, 성북구, 서울특별시, 대한민국",boundary,administrative
눌차동,부산광역시 강서구 가덕도동,35.0666296,128.8414076,"눌차동, 가덕도동, 강서구, 부산광역시, 46769, 대한민국",place,quarter
천성동,부산광역시 강서구 가덕도동,35.04505,128.81015,"천성동, 가덕도동, 강서구, 부산광역시, 46769, 대한민국",place,quarter
대항동,부산광역시 강서구 가덕도동,35.0228,128.81723,"대항동, 가덕도동, 강서구, 부산광역시, 46771, 대한민국",place,quarter
거제동,대한민국 부산광역시 연제구,35.18764245,129.06349393924955,"거제동, 연제구, 부산광역시, 대한민국",boundary,legal
연산동,대한민국 부산광역시 연제구,35.17589275,129.08674109482394,"연산동, 연제구, 부산광역시, 대한민국",boundary,legal
망미동,부산광역시 수영구 망미동,35.1751853,129.1050135,"망미동, 망미1동, 수영구, 부산광역시, 48208, 대한민국",place,quarter
수영동,부산광역시 수영구,35.1706,129.11705,"수영동, 수영구, 부산광역시, 48229, 대한민국",boundary,administrative
민락동,대한민국 부산광역시 수영구,35.1585693,129.127121,"민락동, 수영구, 부산광역시, 대한민국",boundary,administrative
광안동,부산광역시 수영구 광안동,35.1590134,129.113064,"광안동, 광안4동, 수영구, 부산광역시, 48255, 대한민국",place,quarter
남천동,부산광역시 수영구 남천동,35.1446789,129.1100882,"남천동, 남천1동, 수영구, 부산광역시, 48307, 대한민국",place,quarter
삼락동,부산광역시 사상구,35.1837761,128.9791895,"삼락동, 사상구, 부산광역시, 46911, 대한민국",boundary,administrative
모라동,부산광역시 사상구 모라동,35.1855773,128.9938869,"모라동, 모라1동, 사상구, 부산광역시, 46934, 대한민국",place,quarter
덕포동,부산광역시 사상구 덕포동,35.1754906,128.9854608,"덕포동, 덕포2동, 사상구, 부산광역시, 46946, 대한민국",place,quarter
괘법동,대한민국 부산광역시 사상구,35.1635445,128.9855211,"괘법동, 사상구, 부산광역시, 대한민국",boundary,administrative
감전동,대한민국 부산광역시 사상구,35.1541079,128.9800713,"감전동, 사상구, 부산광역시, 대한민국",boundary,administrative
주례동,대한민국 부산광역시 사상구,35.154172,129.00470193369836,"주례동, 사상구, 부산광역시, 대한민국",boundary,legal
학장동,대한민국 부산광역시 사상구,35.1422194,128.9843177,"학장동, 사상구, 부산광역시, 대한민국",boundary,administrative
엄궁동,부산광역시 사상구,35.1253561,128.9725345,"엄궁동, 사상구, 부산광역시, 47039, 대한민국",boundary,administrative
기장읍,대한민국 부산광역시 기장군,35.2385796,129.2158159,"기장읍, 기장군, 부산광역시, 대한민국",boundary,administrative
장안읍,대한민국 부산광역시 기장군,35.33988,129.25706,"장안읍, 기장군, 부산광역시, 대한민국",boundary,administrative
정관읍,대한민국 부산광역시,35.334269,129.1774798,"정관읍, 부산광역시, 46013, 대한민국",place,town
일광읍,대한민국 부산광역시 기장군,35.2640093,129.2323721,"일광읍, 기장군, 부산광역시, 대한민국",boundary,administrative
철마면,부산광역시 기장군,35.27948,129.15495,"철마면, 기장군, 부산광역시, 46049, 대한민국",boundary,administrative
동인동1가,대구광역시 중구 동인동,35.87218,128.60357,"동인동1가, 동인동, 중구, 대구광역시, 41939, 대한민국",place,quarter
동인동2가,대구광역시 중구 동인동,35.8688601,128.6030345,"동인동2가, 동인동, 중구, 대구광역시, 41939, 대한민국",place,quarter
동인동3가,대구광역시 중구 동인동,35.87165,128.61001,"동인동3가, 동인동, 중구, 대구광역시, 41266, 대한민국",place,quarter
동인동4가,대구광역시 중구 동인동,35.866991,128.6102782,"동인동4가, 동인동, 중구, 대구광역시, 41946, 대한민국",place,quarter
삼덕동1가,대구광역시 중구 삼덕동,35.86596,128.59744,"삼덕동1가, 삼덕동, 중구, 대구광역시, 41942, 대한민국",place,quarter
삼덕동2가,대구광역시 중구 삼덕동,35.8655913,128.6022777,"삼덕동2가, 삼덕동, 중구, 대구광역시, 41940, 대한민국",place,quarter
삼덕동3가,대구광역시 중구 삼덕동,35.8644339,128.6083594,"삼덕동3가, 삼덕동, 중구, 대구광역시, 41948, 대한민국",place,quarter
봉산동,대구광역시 중구 성내동,35.86322,128.59761,"봉산동, 성내1동, 중구, 대구광역시, 41959, 대한민국",place,quarter
장관동,대구광역시 중구 성내동,35.86877,128.59068,"장관동, 성내2동, 중구, 대구광역시, 41934, 대한민국",place,quarter
상서동,대구광역시 중구 성내동,35.87062,128.5901,"상서동, 성내2동, 중구, 대구광역시, 41934, 대한민국",place,quarter
수동,대구광역시 중구 성내동,35.86974,128.58909,"수동, 성내2동, 중구, 대구광역시, 41934, 대한민국",place,quarter
덕산동,대구광역시 중구 성내동,35.866037,128.593312,"덕산동, 성내2동, 중구, 대구광역시, 41936, 대한민국",place,quarter
종로1가,서울특별시 종로구 종로···가동,37.5703372,126.98042670430696,"종로1가, 종로1·2·3·4가동, 종로구, 서울특별시, 대한민국",boundary,legal
종로2가,서울특별시 종로구 종로···가동,37.5709125,126.9882267,"종로2가, 종로1·2·3·4가동, 종로구, 서울특별시, 03140, 대한민국",place,neighbourhood
사일동,대구광역시 중구 성내동,35.8713539,128.5953489,"사일동, 성내1동, 중구, 대구광역시, 41909, 대한민국",place,quarter
동일동,대구광역시 중구 성내동,35.8701,128.59338,"동일동, 성내2동, 중구, 대구광역시, 41935, 대한민국",place,quarter
남일동,대구광역시 중구 성내동,35.8694,128.59332,"남일동, 성내2동, 중구, 대구광역시, 41935, 대한민국",place,quarter
전동,인천 중구 동인천동,37.47711,126.62651,"전동, 동인천동, 중구, 인천, 22309, 대한민국",place,quarter
동성로3가,대구광역시 중구 성내동,35.86742,128.5939,"동성로3가, 성내1동, 중구, 대구광역시, 41936, 대한민국",place,quarter
동문동,대구광역시 중구 성내동,35.87223,128.59655,"동문동, 성내1동, 중구, 대구광역시, 41909, 대한민국",place,quarter
문화동,대한민국 대전광역시 중구,36.3096166,127.40672665641488,"문화동, 중구, 대전광역시, 대한민국",boundary,legal
공평동,서울특별시 종로구 종로···가동,37.57144,126.98279,"공평동, 종로1·2·3·4가동, 종로구, 서울특별시, 03150, 대한민국",place,quarter
동성로2가,대구광역시 중구 성내동,35.86738,128.5937,"동성로2가, 성내1동, 중구, 대구광역시, 41936, 대한민국",place,quarter
태평로1가,서울특별시 중구 명동,37.56727,126.977,"태평로1가, 명동, 중구, 서울특별시, 04524, 대한민국",place,quarter
교동,대한민국 강원특별자치도 속초시,38.2031247,128.5823564,"교동, 속초시, 강원특별자치도, 대한민국",boundary,administrative
용덕동,대구광역시 중구 성내동,35.87403,128.59715,"용덕동, 성내1동, 중구, 대구광역시, 41912, 대한민국",place,quarter
상덕동,대구광역시 중구 성내동,35.87345,128.59681,"상덕동, 성내1동, 중구, 대구광역시, 41909, 대한민국",place,quarter
완전동,대구광역시 중구 성내동,35.87257,128.59947,"완전동, 성내1동, 중구, 대구광역시, 41912, 대한민국",place,quarter
도원동,대한민국 대구광역시 달서구,35.8066874,128.5358555,"도원동, 달서구, 대구광역시, 대한민국",boundary,administrative
수창동,대구광역시 중구 성내동,35.87504,128.58662,"수창동, 성내3동, 중구, 대구광역시, 41915, 대한민국",place,quarter
태평로3가,대구광역시 중구 성내동,35.8771842,128.5857221,"태평로3가, 성내3동, 중구, 대구광역시, 41915, 대한민국",place,quarter
인교동,대구광역시 중구 성내동,35.87283,128.58432,"인교동, 성내3동, 중구, 대구광역시, 41921, 대한민국",place,quarter
서야동,대구광역시 중구 성내동,35.87364,128.58531,"서야동, 성내3동, 중구, 대구광역시, 41921, 대한민국",place,quarter
서성로1가,대구광역시 중구 성내동,35.87128,128.58746,"서성로1가, 성내2동, 중구, 대구광역시, 41921, 대한민국",place,quarter
시장북로,대구광역시 중구 성내동,35.87229,128.58244,"시장북로, 성내3동, 중구, 대구광역시, 41921, 대한민국",place,quarter
하서동,대구광역시 중구 성내동,35.86888,128.5881,"하서동, 성내2동, 중구, 대구광역시, 41934, 대한민국",place,quarter
남성로,대구광역시 중구 성내동,35.8683,128.58952,"남성로, 성내2동, 중구, 대구광역시, 41934, 대한민국",place,quarter
계산동1가,대구광역시 중구 성내동,35.86901,128.58615,"계산동1가, 성내2동, 중구, 대구광역시, 41931, 대한민국",place,quarter
계산동2가,대구광역시 중구 성내동,35.86742,128.58967,"계산동2가, 성내2동, 중구, 대구광역시, 41934, 대한민국",place,quarter
동산동,대구광역시 중구 성내동,35.86824,128.58471,"동산동, 성내2동, 중구, 대구광역시, 41931, 대한민국",place,quarter
서문로2가,대구광역시 중구 성내동,35.87109,128.58636,"서문로2가, 성내3동, 중구, 대구광역시, 41921, 대한민국",place,quarter
서성로2가,대한민국 대구광역시 중구,35.8701926,128.5895991,"성내2동, 중구, 대구광역시, 대한민국",boundary,administrative
포정동,대구광역시 중구 성내동,35.87171,128.59269,"포정동, 성내2동, 중구, 대구광역시, 41918, 대한민국",place,quarter
서문로1가,대구광역시 중구 성내동,35.87098,128.58531,"서문로1가, 성내3동, 중구, 대구광역시, 41921, 대한민국",place,quarter
서내동,대구광역시 중구 성내동,35.87302,128.58795,"서내동, 성내2동, 중구, 대구광역시, 41921, 대한민국",place,quarter
북성로2가,대구광역시 중구 성내동,35.87397,128.58932,"북성로2가, 성내2동, 중구, 대구광역시, 41915, 대한민국",place,quarter
대안동,대한민국 경상남도 진주시,35.194580599999995,128.08411133848966,"대안동, 진주시, 경상남도, 대한민국",boundary,legal
동성로1가,대구광역시 중구 성내동,35.86931,128.59576,"동성로1가, 성내1동, 중구, 대구광역시, 41937, 대한민국",place,quarter
태평로2가,서울특별시 중구 소공동,37.5645479,126.9766825,"태평로2가, 소공동, 중구, 서울특별시, 04515, 대한민국",place,quarter
북성로1가,대구광역시 중구 성내동,35.87467,128.59407,"북성로1가, 성내2동, 중구, 대구광역시, 41918, 대한민국",place,quarter
화전동,경기도 고양시 덕양구,37.60313095,126.8841703464922,"화전동, 덕양구, 고양시, 경기도, 대한민국",boundary,administrative
향촌동,대한민국 경상남도 사천시,34.9398592,128.1074036404325,"향촌동, 사천시, 경상남도, 대한민국",boundary,administrative
북내동,대구광역시 중구 성내동,35.87304,128.58958,"북내동, 성내2동, 중구, 대구광역시, 41921, 대한민국",place,quarter
대신동,대한민국 대구광역시 중구,35.8669269,128.5793045,"대신동, 중구, 대구광역시, 대한민국",boundary,administrative
달성동,대구광역시 중구 성내동,35.8768643,128.58018,"달성동, 성내3동, 중구, 대구광역시, 41922, 대한민국",place,quarter
남산동,대한민국 부산광역시 금정구,35.2680875,129.0897851,"남산동, 금정구, 부산광역시, 대한민국",boundary,administrative
대봉동,대구광역시 중구 대봉동,35.8593575,128.6023058746128,"대봉동, 대봉1동, 중구, 대구광역시, 대한민국",boundary,legal
신암동,대구광역시 동구 신암동,35.88399,128.62359,"신암동, 신암4동, 동구, 대구광역시, 41199, 대한민국",place,quarter
신천동,대한민국 경기도 시흥시,37.43961375,126.77885557449832,"신천동, 시흥시, 경기도, 대한민국",boundary,administrative
효목동,대한민국 대구광역시 동구,35.8804666,128.6450973324451,"효목동, 동구, 대구광역시, 대한민국",boundary,legal
평광동,대구광역시 동구 도평동,35.9307,128.7062,"평광동, 도평동, 동구, 대구광역시, 41059, 대한민국",place,quarter
봉무동,대구광역시 동구 불로·봉무동,35.9225867,128.6409109,"봉무동, 불로·봉무동, 동구, 대구광역시, 41027, 대한민국",place,quarter
불로동,서구 불로대곡동,37.6111164,126.6875745,"불로동, 불로대곡동, 서구, 22620, 대한민국",place,quarter
도동,대구광역시 동구 도평동,35.92533,128.66264,"도동, 도평동, 동구, 대구광역시, 41052, 대한민국",place,quarter
지저동,대구광역시 동구,35.8959979,128.6394776,"지저동, 동구, 대구광역시, 41049, 대한민국",boundary,administrative
입석동,대구광역시 동구 동촌동,35.89855,128.65164,"입석동, 동촌동, 동구, 대구광역시, 41143, 대한민국",place,quarter
검사동,대구광역시 동구 동촌동,35.89596,128.6647,"검사동, 동촌동, 동구, 대구광역시, 41135, 대한민국",place,quarter
방촌동,대구광역시 동구,35.8790343,128.6644411,"방촌동, 동구, 대구광역시, 41162, 대한민국",boundary,administrative
둔산동,대구광역시 동구 해안동,35.90778,128.68861,"둔산동, 해안동, 동구, 대구광역시, 41059, 대한민국",place,quarter
부동,대구광역시 동구 해안동,35.89122,128.68951,"부동, 해안동, 동구, 대구광역시, 41059, 대한민국",place,quarter
신평동,부산광역시 사하구 신평동,35.097,128.95831,"신평동, 신평2동, 사하구, 부산광역시, 49429, 대한민국",place,quarter
서호동,대구광역시 동구 안심동,35.86495,128.70906,"서호동, 안심4동, 동구, 대구광역시, 41114, 대한민국",place,quarter
동호동,대구광역시 동구 안심동,35.86598,128.71652,"동호동, 안심3동, 동구, 대구광역시, 41112, 대한민국",place,quarter
신기동,대구광역시 동구 안심동,35.8656,128.70335,"신기동, 안심1동, 동구, 대구광역시, 41114, 대한민국",place,quarter
율하동,대구광역시 동구 안심동,35.86652,128.69071,"율하동, 안심1동, 동구, 대구광역시, 41122, 대한민국",place,quarter
용계동,대구광역시 동구 안심동,35.87377,128.68835,"용계동, 안심2동, 동구, 대구광역시, 41124, 대한민국",place,quarter
율암동,대구광역시 동구 안심동,35.88023,128.70356,"율암동, 안심2동, 동구, 대구광역시, 41119, 대한민국",place,quarter
상매동,대구광역시 동구 안심동,35.90755,128.71107,"상매동, 안심2동, 동구, 대구광역시, 41059, 대한민국",place,quarter
매여동,대구광역시 동구 안심동,35.91143,128.72807,"매여동, 안심2동, 동구, 대구광역시, 41063, 대한민국",place,quarter
각산동,대구광역시 동구 혁신동,35.8839617,128.7160585,"각산동, 혁신동, 동구, 대구광역시, 41066, 대한민국",place,quarter
신서동,대구광역시 동구 혁신동,35.88605,128.73152,"신서동, 혁신동, 동구, 대구광역시, 41062, 대한민국",place,quarter
동내동,대구광역시 동구 혁신동,35.89042,128.7424,"동내동, 혁신동, 동구, 대구광역시, 41062, 대한민국",place,quarter
괴전동,대구광역시 동구 안심동,35.87165,128.73904,"괴전동, 안심3동, 동구, 대구광역시, 41076, 대한민국",place,quarter
금강동,대구광역시 동구 안심동,35.85866,128.73631,"금강동, 안심3동, 동구, 대구광역시, 41076, 대한민국",place,quarter
대림동,대한민국 서울특별시 영등포구,37.49672015,126.90112314841656,"대림동, 영등포구, 서울특별시, 대한민국",boundary,legal
사복동,대구광역시 동구 안심동,35.87156,128.75354,"사복동, 안심3동, 동구, 대구광역시, 41076, 대한민국",place,quarter
숙천동,대구광역시 동구 혁신동,35.87868,128.75442,"숙천동, 혁신동, 동구, 대구광역시, 41062, 대한민국",place,quarter
내곡동,서울특별시 서초구 안골,37.4534615,127.0664442,"내곡동, 안골, 서초구, 서울특별시, 대한민국",boundary,administrative
능성동,대구광역시 동구 공산동,35.96662,128.73541,"능성동, 공산동, 동구, 대구광역시, 38405, 대한민국",place,quarter
진인동,대구광역시 동구 공산동,35.95949,128.72438,"진인동, 공산동, 동구, 대구광역시, 41007, 대한민국",place,quarter
도학동,대구광역시 동구 공산동,35.98966,128.71429,"도학동, 공산동, 동구, 대구광역시, 41007, 대한민국",place,quarter
백안동,대구광역시 동구 공산동,35.95542,128.69552,"백안동, 공산동, 동구, 대구광역시, 41007, 대한민국",place,quarter
미곡동,대구광역시 동구 공산동,35.96778,128.68492,"미곡동, 공산동, 동구, 대구광역시, 41007, 대한민국",place,quarter
용수동,대구광역시 동구 공산동,35.99123,128.68344,"용수동, 공산동, 동구, 대구광역시, 41007, 대한민국",place,quarter
신무동,대구광역시 동구 공산동,35.99623,128.66879,"신무동, 공산동, 동구, 대구광역시, 41007, 대한민국",place,quarter
미대동,대구광역시 동구 공산동,35.95639,128.66902,"미대동, 공산동, 동구, 대구광역시, 41005, 대한민국",place,quarter
내동,대한민국 대전광역시 서구,36.3329075,127.3781224,"내동, 서구, 대전광역시, 대한민국",boundary,administrative
신용동,대구광역시 동구 공산동,35.98447,128.6499,"신용동, 공산동, 동구, 대구광역시, 41001, 대한민국",place,quarter
중대동,대구광역시 동구 공산동,35.9879784,128.6331257,"중대동, 공산동, 동구, 대구광역시, 41001, 대한민국",place,quarter
송정동,대한민국 서울특별시 성동구,37.55374825,127.06848349493912,"송정동, 성동구, 서울특별시, 대한민국",boundary,administrative
덕곡동,대구광역시 동구 공산동,35.98988,128.6163,"덕곡동, 공산동, 동구, 대구광역시, 39856, 대한민국",place,quarter
지묘동,대구광역시 동구 공산동,35.95125,128.64636,"지묘동, 공산동, 동구, 대구광역시, 41005, 대한민국",place,quarter
내당동,대한민국 대구광역시 서구,35.86256175,128.56188782431224,"내당동, 서구, 대구광역시, 대한민국",boundary,legal
비산동,대한민국 대구광역시 서구,35.881121199999995,128.56657921719844,"비산동, 서구, 대구광역시, 대한민국",boundary,legal
평리동,대한민국 대구광역시 서구,35.8732984,128.55692005157252,"평리동, 서구, 대구광역시, 대한민국",boundary,legal
상리동,대구광역시 서구 상중이동,35.87635,128.52523,"상리동, 상중이동, 서구, 대구광역시, 41490, 대한민국",place,quarter
중리동,대전광역시 대덕구,36.3629656,127.4280754,"중리동, 대덕구, 대전광역시, 34395, 대한민국",boundary,administrative
이현동,대한민국 경상남도 진주시,35.1978993,128.05399596762112,"이현동, 진주시, 경상남도, 대한민국",boundary,administrative
원대동1가,대구광역시 서구 원대동,35.88182,128.5769,"원대동1가, 원대동, 서구, 대구광역시, 41716, 대한민국",place,quarter
원대동2가,대구광역시 서구 원대동,35.88426,128.58012,"원대동2가, 원대동, 서구, 대구광역시, 41558, 대한민국",place,quarter
원대동3가,대구광역시 서구 원대동,35.88532,128.57388,"원대동3가, 원대동, 서구, 대구광역시, 41716, 대한민국",place,quarter
이천동,대구광역시 남구,35.8519911,128.6011321,"이천동, 남구, 대구광역시, 42431, 대한민국",boundary,administrative
봉덕동,대한민국 대구광역시 남구,35.82896445,128.5985623139825,"봉덕동, 남구, 대구광역시, 대한민국",boundary,legal
대명동,,35.8355675,128.57178488673514,"대명동, 대구광역시, 대한민국",boundary,legal
칠성동1가,대구광역시 북구 칠성동,35.8756488,128.6052204,"칠성동1가, 칠성동, 북구, 대구광역시, 41576, 대한민국",place,quarter
칠성동2가,대구광역시 북구 칠성동,35.87995,128.5957,"칠성동2가, 칠성동, 북구, 대구광역시, 41579, 대한민국",place,quarter
고성동1가,대구광역시 북구 고성동,35.8790316,128.5843178,"고성동1가, 고성동, 북구, 대구광역시, 41596, 대한민국",place,quarter
고성동2가,대구광역시 북구 고성동,35.8802182,128.5844634,"고성동2가, 고성동, 북구, 대구광역시, 41595, 대한민국",place,quarter
고성동3가,대구광역시 북구 고성동,35.8825304,128.5839623,"고성동3가, 고성동, 북구, 대구광역시, 41595, 대한민국",place,quarter
침산동,대구광역시 북구 침산동,35.8920401,128.5878923,"침산동, 침산3동, 북구, 대구광역시, 41550, 대한민국",place,quarter
노원동1가,대구광역시 북구 노원동,35.88901,128.57974,"노원동1가, 노원동, 북구, 대구광역시, 41558, 대한민국",place,quarter
노원동2가,대구광역시 북구 노원동,35.891,128.57356,"노원동2가, 노원동, 북구, 대구광역시, 41716, 대한민국",place,quarter
노원동3가,대구광역시 북구 노원동,35.89643,128.56532,"노원동3가, 노원동, 북구, 대구광역시, 41495, 대한민국",place,quarter
대현동,대한민국 대구광역시 북구,35.88326,128.60829,"대현동, 북구, 대구광역시, 대한민국",boundary,administrative
산격동,대구광역시 북구 산격동,35.90163,128.60464,"산격동, 산격1동, 북구, 대구광역시, 41519, 대한민국",place,quarter
복현동,대구광역시 북구 복현동,35.8968175,128.6194541,"복현동, 복현2동, 북구, 대구광역시, 41564, 대한민국",place,quarter
검단동,,37.61325575,126.6487956437792,"검단동, 서구, 대한민국",boundary,administrative
동변동,대구광역시 북구 무태조야동,35.92143,128.6067,"동변동, 무태조야동, 북구, 대구광역시, 41414, 대한민국",place,quarter
서변동,대구광역시 북구 무태조야동,35.9235922,128.5955669,"서변동, 무태조야동, 북구, 대구광역시, 41475, 대한민국",place,quarter
조야동,대구광역시 북구 무태조야동,35.91705,128.57722,"조야동, 무태조야동, 북구, 대구광역시, 41478, 대한민국",place,quarter
노곡동,대구광역시 북구 관문동,35.91025,128.56134,"노곡동, 관문동, 북구, 대구광역시, 41469, 대한민국",place,quarter
읍내동,대한민국 대구광역시 북구,35.9480902,128.5521832,"읍내동, 북구, 대구광역시, 대한민국",boundary,administrative
동호동,대구광역시 동구 안심동,35.86598,128.71652,"동호동, 안심3동, 동구, 대구광역시, 41112, 대한민국",place,quarter
학정동,대구광역시 북구 국우동,35.95291,128.56546,"학정동, 국우동, 북구, 대구광역시, 41405, 대한민국",place,quarter
도남동,대구광역시 북구 국우동,35.97082,128.58815,"도남동, 국우동, 북구, 대구광역시, 39856, 대한민국",place,quarter
국우동,대한민국 대구광역시 북구,35.9529998,128.5799093,"국우동, 북구, 대구광역시, 대한민국",boundary,administrative
구암동,대한민국 대구광역시 북구,35.929559,128.5581603,"구암동, 북구, 대구광역시, 대한민국",boundary,administrative
동천동,용인시 수지구 신봉동,37.34038,127.08564,"동천동, 신봉동, 수지구, 용인시, 경기도, 16822, 대한민국",place,quarter
관음동,대구광역시 북구,35.93986,128.54382,"관음동, 북구, 대구광역시, 41441, 대한민국",boundary,administrative
태전동,대한민국 대구광역시 북구,35.9214358,128.54615231034776,"태전동, 북구, 대구광역시, 대한민국",boundary,legal
매천동,대구광역시 북구 관문동,35.913,128.53976,"매천동, 관문동, 북구, 대구광역시, 41486, 대한민국",place,quarter
팔달동,대구광역시 북구 관문동,35.89879,128.54051,"팔달동, 관문동, 북구, 대구광역시, 41489, 대한민국",place,quarter
금호동,대한민국 강원특별자치도 속초시,38.21071,128.57933,"금호동, 속초시, 강원특별자치도, 대한민국",boundary,administrative
사수동,대구광역시 북구 관문동,35.90089,128.51321,"사수동, 관문동, 북구, 대구광역시, 41493, 대한민국",place,quarter
연경동,대구광역시 북구 무태조야동,35.96102,128.61361,"연경동, 무태조야동, 북구, 대구광역시, 39856, 대한민국",place,quarter
범어동,대한민국 대구광역시 수성구,35.8570887,128.63263731765974,"범어동, 수성구, 대구광역시, 대한민국",boundary,legal
만촌동,대한민국 대구광역시 수성구,35.85987905,128.64844845987733,"만촌동, 수성구, 대구광역시, 대한민국",boundary,legal
수성동1가,대구광역시 수성구 수성가동,35.85519,128.61044,"수성동1가, 수성1가동, 수성구, 대구광역시, 42127, 대한민국",place,quarter
수성동2가,대구광역시 수성구 수성·가동,35.85553,128.61541,"수성동2가, 수성2·3가동, 수성구, 대구광역시, 42119, 대한민국",place,quarter
수성동3가,대구광역시 수성구 수성·가동,35.8554,128.61911,"수성동3가, 수성2·3가동, 수성구, 대구광역시, 42119, 대한민국",place,quarter
수성동4가,대구광역시 수성구 수성가동,35.86426,128.61567,"수성동4가, 수성4가동, 수성구, 대구광역시, 42005, 대한민국",place,quarter
황금동,전라남도 광양시,34.9132611,127.6433442,"황금동, 광양시, 전라남도, 57769, 대한민국",place,quarter
중동,중동 중동 해운대로,35.1666759,129.1678074,"중동, 해운대로, 중동, 중1동, 해운대구, 부산광역시, 48096, 대한민국",railway,station
상동,밀양시 금산리 금산길,35.5557169,128.7604039,"상동, 금산5길, 금산리, 밀양시, 경상남도, 50409, 대한민국",railway,station
파동,대한민국 대구광역시 수성구,35.8147288,128.6153796,"파동, 수성구, 대구광역시, 대한민국",boundary,administrative
두산동,대한민국 대구광역시 수성구,35.8307094,128.619849,"두산동, 수성구, 대구광역시, 대한민국",boundary,administrative
지산동,대한민국 대구광역시 수성구,35.8239902,128.63451378406114,"지산동, 수성구, 대구광역시, 대한민국",boundary,legal
범물동,대한민국 대구광역시 수성구,35.810122,128.65480818014566,"범물동, 수성구, 대구광역시, 대한민국",boundary,legal
시지동,대구광역시 수성구 고산동,35.84276,128.69352,"시지동, 고산2동, 수성구, 대구광역시, 42262, 대한민국",place,quarter
매호동,대구광역시 수성구 고산동,35.85066,128.70837,"매호동, 고산3동, 수성구, 대구광역시, 42267, 대한민국",place,quarter
성동,대구광역시 수성구 고산동,35.85182,128.72041,"성동, 고산3동, 수성구, 대구광역시, 42272, 대한민국",place,quarter
사월동,대구광역시 수성구 고산동,35.83963,128.71989,"사월동, 고산3동, 수성구, 대구광역시, 42272, 대한민국",place,quarter
신매동,대구광역시 수성구 고산동,35.83496,128.70863,"신매동, 고산1동, 수성구, 대구광역시, 42276, 대한민국",place,quarter
욱수동,대구광역시 수성구 고산동,35.81206,128.69754,"욱수동, 고산1동, 수성구, 대구광역시, 42280, 대한민국",place,quarter
노변동,대구광역시 수성구 고산동,35.83098,128.70445,"노변동, 고산1동, 수성구, 대구광역시, 42276, 대한민국",place,quarter
삼덕동,대한민국 대구광역시 중구,35.8649881,128.6044179,"삼덕동, 중구, 대구광역시, 대한민국",boundary,administrative
연호동,대구광역시 수성구 고산동,35.84173,128.6723,"연호동, 고산2동, 수성구, 대구광역시, 42250, 대한민국",place,quarter
이천동,대구광역시 남구,35.8519911,128.6011321,"이천동, 남구, 대구광역시, 42431, 대한민국",boundary,administrative
고모동,대구광역시 수성구 고산동,35.86287,128.66911,"고모동, 고산2동, 수성구, 대구광역시, 42071, 대한민국",place,quarter
가천동,대구광역시 수성구 고산동,35.85105,128.68797,"가천동, 고산2동, 수성구, 대구광역시, 42262, 대한민국",place,quarter
대흥동,대한민국 대전광역시 중구,36.3227747,127.4254193,"대흥동, 중구, 대전광역시, 대한민국",boundary,administrative
성당동,대한민국 대구광역시 달서구,35.8426178,128.5540792,"성당동, 달서구, 대구광역시, 대한민국",boundary,administrative
두류동,대구광역시 달서구 두류·동,35.8566057,128.5648257,"두류동, 두류1·2동, 달서구, 대구광역시, 41864, 대한민국",place,quarter
파호동,대구광역시 달서구 신당동,35.84601,128.47322,"파호동, 신당동, 달서구, 대구광역시, 42920, 대한민국",place,quarter
호림동,대구광역시 달서구 신당동,35.83568,128.48178,"호림동, 신당동, 달서구, 대구광역시, 42702, 대한민국",place,quarter
갈산동,경기도 안양시 동안구,37.37762545,126.96445780588628,"갈산동, 동안구, 안양시, 경기도, 대한민국",boundary,administrative
신당동,대한민국 서울특별시 중구,37.5651969,127.01321999381744,"신당동, 중구, 서울특별시, 대한민국",boundary,administrative
이곡동,대구광역시 달서구 이곡동,35.85409,128.50764,"이곡동, 이곡1동, 달서구, 대구광역시, 42620, 대한민국",place,quarter
장동,대구광역시 달서구 장기동,35.83845,128.51512,"장동, 장기동, 달서구, 대구광역시, 42722, 대한민국",place,quarter
장기동,대한민국 대구광역시 달서구,35.8446408,128.519156,"장기동, 달서구, 대구광역시, 대한민국",boundary,administrative
용산동,대구광역시 달서구 용산동,35.8571362,128.52484,"용산동, 용산1동, 달서구, 대구광역시, 42617, 대한민국",place,quarter
죽전동,대한민국 대구광역시 달서구,35.8554316,128.5365409,"죽전동, 달서구, 대구광역시, 대한민국",boundary,administrative
감삼동,대한민국 대구광역시 달서구,35.8485482,128.540915,"감삼동, 달서구, 대구광역시, 대한민국",boundary,administrative
본리동,대한민국 대구광역시 달서구,35.8409108,128.5392702,"본리동, 달서구, 대구광역시, 대한민국",boundary,administrative
상인동,대구광역시 달서구 상인동,35.8171266,128.5437159,"상인동, 상인1동, 달서구, 대구광역시, 42804, 대한민국",place,quarter
도원동,대한민국 대구광역시 달서구,35.8066874,128.5358555,"도원동, 달서구, 대구광역시, 대한민국",boundary,administrative
진천동,대한민국 대구광역시 달서구,35.8107208,128.5212715,"진천동, 달서구, 대구광역시, 대한민국",boundary,administrative
유천동,대한민국 대전광역시 중구,36.3172581,127.39747719437234,"유천동, 중구, 대전광역시, 대한민국",boundary,legal
대천동,대한민국 제주특별자치도 서귀포시,33.284129750000005,126.49086832820284,"대천동, 서귀포시, 제주특별자치도, 대한민국",boundary,administrative
월성동,광주광역시 남구,35.0660341,126.8068545,"월성동, 남구, 광주광역시, 58214, 대한민국",place,quarter
월암동,경기도 의왕시 부곡동,37.3103577,126.954739,"월암동, 부곡동, 의왕시, 경기도, 대한민국",place,village
송현동,대한민국 인천 동구,37.48632,126.64125103373158,"송현동, 동구, 인천, 대한민국",boundary,administrative
대곡동,서구 불로대곡동,37.62399,126.66584,"대곡동, 불로대곡동, 서구, 10088, 대한민국",place,quarter
본동,대한민국 대구광역시 달서구,35.8354002,128.5397293,"본동, 달서구, 대구광역시, 대한민국",boundary,administrative
호산동,대구광역시 달서구 신당동,35.85067823124706,128.48402439982016,"호산동로35길, 신당동, 달서구, 대구광역시, 42602, 대한민국",highway,living_street
화원읍,대한민국 대구광역시 달성군,35.8024072,128.4964134,"화원읍, 달성군, 대구광역시, 대한민국",boundary,administrative
논공읍,대한민국 대구광역시 달성군,35.7310508,128.4516311,"논공읍, 달성군, 대구광역시, 대한민국",boundary,administrative
다사읍,대한민국 대구광역시 달성군,35.8622907,128.4620011,"다사읍, 달성군, 대구광역시, 대한민국",boundary,administrative
유가읍,대한민국 대구광역시 달성군,35.6940422,128.4597255,"유가읍, 달성군, 대구광역시, 대한민국",boundary,administrative
옥포읍,대한민국 대구광역시 달성군,35.7872116,128.4612293,"옥포읍, 달성군, 대구광역시, 대한민국",boundary,administrative
현풍읍,대한민국 대구광역시 달성군,35.6974883,128.4475083,"현풍읍, 달성군, 대구광역시, 대한민국",boundary,administrative
가창면,대한민국 대구광역시 달성군,35.7778073,128.6476679,"가창면, 달성군, 대구광역시, 대한민국",boundary,administrative
하빈면,대한민국 대구광역시 달성군,35.8955154,128.4246415,"하빈면, 달성군, 대구광역시, 대한민국",boundary,administrative
구지면,대한민국 대구광역시 달성군,35.65198,128.41084,"구지면, 달성군, 대구광역시, 대한민국",boundary,administrative
군위읍,대구광역시 군위군,36.2399401,128.568785,"군위읍, 군위군, 대구광역시, 39014, 대한민국",boundary,administrative
소보면,대구광역시 군위군,36.26235,128.48036,"소보면, 군위군, 대구광역시, 39002, 대한민국",boundary,administrative
효령면,대한민국 대구광역시 군위군,36.14663,128.59544,"효령면, 군위군, 대구광역시, 대한민국",boundary,administrative
부계면,대한민국 대구광역시 군위군,36.07075,128.65745,"부계면, 군위군, 대구광역시, 대한민국",boundary,administrative
우보면,대한민국 대구광역시 군위군,36.17373,128.66258,"우보면, 군위군, 대구광역시, 대한민국",boundary,administrative
의흥면,대한민국 대구광역시 군위군,36.16864,128.73582,"의흥면, 군위군, 대구광역시, 대한민국",boundary,administrative
산성면,대구광역시 군위군,36.10165,128.71005,"산성면, 군위군, 대구광역시, 39058, 대한민국",boundary,administrative
삼국유사면,대구광역시 군위군,36.15227,128.82066,"삼국유사면, 군위군, 대구광역시, 39055, 대한민국",boundary,administrative
중앙동1가,부산광역시 중구,35.104,129.0397,"중앙동1가, 중구, 부산광역시, 48929, 대한민국",place,quarter
중앙동2가,부산광역시 중구 중앙동,35.10218,129.03552,"중앙동2가, 중앙동, 중구, 부산광역시, 48956, 대한민국",place,quarter
중앙동3가,부산광역시 중구 중앙동,35.10353,129.03521,"중앙동3가, 중앙동, 중구, 부산광역시, 48929, 대한민국",place,quarter
중앙동4가,부산광역시 중구 중앙동,35.10788,129.03738,"중앙동4가, 중앙동, 중구, 부산광역시, 48938, 대한민국",place,quarter
해안동1가,인천 중구 신포동,37.47293,126.61994,"해안동1가, 신포동, 중구, 인천, 22306, 대한민국",place,quarter
해안동2가,인천 중구 신포동,37.4722,126.62113,"해안동2가, 신포동, 중구, 인천, 22314, 대한민국",place,quarter
해안동3가,인천 중구 신포동,37.47134,126.62213,"해안동3가, 신포동, 중구, 인천, 22314, 대한민국",place,quarter
해안동4가,인천 중구 신포동,37.47065,126.62333,"해안동4가, 신포동, 중구, 인천, 22314, 대한민국",place,quarter
관동1가,대한민국 인천 중구,37.4737356,126.6215448513303,"관동1가, 중구, 인천, 대한민국",boundary,administrative
관동2가,대한민국 인천 중구,37.4727571,126.62351482716008,"관동2가, 중구, 인천, 대한민국",boundary,administrative
관동3가,대한민국 인천 중구,37.47207625,126.62477085302108,"관동3가, 중구, 인천, 대한민국",boundary,administrative
항동1가,인천 중구 신포동,37.4737597,126.6177589,"항동1가, 신포동, 중구, 인천, 22312, 대한민국",place,quarter
항동2가,인천 중구 신포동,37.4724563,126.6174795,"항동2가, 신포동, 중구, 인천, 22306, 대한민국",place,quarter
항동3가,인천 중구 신포동,37.4722996,126.6192435,"항동3가, 신포동, 중구, 인천, 22306, 대한민국",place,quarter
항동4가,인천 중구 신포동,37.47134,126.62037,"항동4가, 신포동, 중구, 인천, 22314, 대한민국",place,quarter
항동5가,인천 중구 신포동,37.47061,126.62158,"항동5가, 신포동, 중구, 인천, 22314, 대한민국",place,quarter
항동6가,인천 중구 신포동,37.4699,126.62274,"항동6가, 신포동, 중구, 인천, 22314, 대한민국",place,quarter
항동7가,인천 중구 연안동,37.45443,126.61033,"항동7가, 연안동, 중구, 인천, 22348, 대한민국",place,quarter
송학동1가,인천 중구 신포동,37.4749,126.62252,"송학동1가, 신포동, 중구, 인천, 22315, 대한민국",place,quarter
송학동2가,인천 중구 신포동,37.4739832,126.62451,"송학동2가, 신포동, 중구, 인천, 22315, 대한민국",place,quarter
송학동3가,인천 중구 신포동,37.47338,126.62572,"송학동3가, 신포동, 중구, 인천, 22322, 대한민국",place,quarter
사동,인천 중구 신포동,37.46836,126.62518,"사동, 신포동, 중구, 인천, 22313, 대한민국",place,quarter
신생동,인천 중구 신포동,37.4696597,126.6266658,"신생동, 신포동, 중구, 인천, 22313, 대한민국",place,quarter
신포동,대한민국 인천 중구,37.4673141,126.62087413613884,"신포동, 중구, 인천, 대한민국",boundary,administrative
답동,인천 중구 신포동,37.46947,126.62895,"답동, 신포동, 중구, 인천, 22321, 대한민국",place,quarter
신흥동1가,인천 중구 신흥동,37.4667,126.63146,"신흥동1가, 신흥동, 중구, 인천, 22324, 대한민국",place,quarter
신흥동2가,인천 중구 신흥동,37.4669222,126.6347881,"신흥동2가, 신흥동, 중구, 인천, 22320, 대한민국",place,quarter
신흥동3가,인천 중구 신흥동,37.44814,126.62876,"신흥동3가, 신흥동, 중구, 인천, 22192, 대한민국",place,quarter
선화동,대전광역시 중구 은행선화동,36.3313719,127.418422,"선화동, 은행선화동, 중구, 대전광역시, 34851, 대한민국",place,quarter
유동,인천 중구 율목동,37.46973,126.63687,"유동, 율목동, 중구, 인천, 22319, 대한민국",place,quarter
율목동,인천 중구,37.47009345,126.635044392266,"율목동, 중구, 인천, 22319, 대한민국",boundary,administrative
도원동,대한민국 대구광역시 달서구,35.8066874,128.5358555,"도원동, 달서구, 대구광역시, 대한민국",boundary,administrative
내동,대한민국 대전광역시 서구,36.3329075,127.3781224,"내동, 서구, 대전광역시, 대한민국",boundary,administrative
경동,인천 중구 동인천동,37.47209,126.63188,"경동, 동인천동, 중구, 인천, 22321, 대한민국",place,quarter
용동,인천 중구 동인천동,37.47323,126.63101,"용동, 동인천동, 중구, 인천, 22321, 대한민국",place,quarter
인현동,인천 중구 동인천동,37.47503,126.63179,"인현동, 동인천동, 중구, 인천, 22316, 대한민국",place,quarter
전동,인천 중구 동인천동,37.47711,126.62651,"전동, 동인천동, 중구, 인천, 22309, 대한민국",place,quarter
북성동1가,인천 중구 북성동,37.4782563,126.6158726,"북성동1가, 북성동, 중구, 인천, 22312, 대한민국",place,quarter
북성동2가,인천 중구 북성동,37.4771996,126.6187996,"북성동2가, 북성동, 중구, 인천, 22312, 대한민국",place,quarter
북성동3가,인천 중구 북성동,37.47616,126.62091,"북성동3가, 북성동, 중구, 인천, 22315, 대한민국",place,quarter
선린동,인천 중구 신포동,37.47464,126.61855,"선린동, 신포동, 중구, 인천, 22312, 대한민국",place,quarter
송월동1가,인천 중구 송월동,37.47986,126.62348,"송월동1가, 송월동, 중구, 인천, 22308, 대한민국",place,quarter
송월동2가,인천 중구 송월동,37.4786615,126.6193288,"송월동2가, 송월동, 중구, 인천, 22312, 대한민국",place,quarter
송월동3가,인천 중구 송월동,37.47816,126.62113,"송월동3가, 송월동, 중구, 인천, 22308, 대한민국",place,quarter
중산동,중구 영종동,37.49627,126.5583,"중산동, 영종1동, 중구, 22390, 대한민국",place,quarter
운남동,대한민국 광주광역시 광산구,35.169115500000004,126.8235074852618,"운남동, 광산구, 광주광역시, 대한민국",boundary,administrative
운서동,,37.48447,126.48626,"운서동, 중구, 대한민국",boundary,administrative
운북동,중구 영종동,37.51588,126.51892,"운북동, 영종동, 중구, 22372, 대한민국",place,quarter
을왕동,중구 용유동,37.45259,126.38318,"을왕동, 용유동, 중구, 22384, 대한민국",place,quarter
남북동,중구 용유동,37.4499857,126.41187,"남북동, 용유동, 중구, 22384, 대한민국",place,quarter
덕교동,중구 용유동,37.43512,126.41899,"덕교동, 용유동, 중구, 22384, 대한민국",place,quarter
무의동,중구 용유동,37.38999,126.41902,"무의동, 용유동, 중구, 22387, 대한민국",place,quarter
만석동,대한민국 인천 동구,37.4857038,126.6225567,"만석동, 동구, 인천, 대한민국",boundary,administrative
화수동,인천 동구 화수·화평동,37.4824887,126.6320161,"화수동, 화수1·화평동, 동구, 인천, 22517, 대한민국",place,quarter
송현동,대한민국 인천 동구,37.48632,126.64125103373158,"송현동, 동구, 인천, 대한민국",boundary,administrative
화평동,인천 동구 화수·화평동,37.47924,126.63082,"화평동, 화수1·화평동, 동구, 인천, 22517, 대한민국",place,quarter
창영동,인천 동구 금창동,37.47070945,126.64111144523108,"창영동, 금창동, 동구, 인천, 대한민국",boundary,legal
금곡동,인천 동구 금창동,37.4725,126.63928,"금곡동, 금창동, 동구, 인천, 22564, 대한민국",place,quarter
송림동,대한민국 인천 동구,37.4773577,126.6487611,"송림동, 동구, 인천, 대한민국",boundary,administrative
숭의동,대한민국 인천 미추홀구,37.46364135,126.65057080522658,"숭의동, 미추홀구, 인천, 대한민국",boundary,legal
용현동,인천 미추홀구 용현·동,37.4508937,126.6492456,"용현동, 용현1·4동, 미추홀구, 인천, 22201, 대한민국",place,quarter
학익동,인천 미추홀구 학익동,37.4400661,126.6564528,"학익동, 학익1동, 미추홀구, 인천, 22225, 대한민국",place,quarter
도화동,대한민국 서울특별시 마포구,37.5386394,126.9492428212704,"도화동, 마포구, 서울특별시, 대한민국",boundary,administrative
주안동,인천 미추홀구 주안동,37.4587798,126.679789,"주안동, 주안1동, 미추홀구, 인천, 22139, 대한민국",place,quarter
관교동,인천 미추홀구,37.4433241,126.6908239,"관교동, 미추홀구, 인천, 22241, 대한민국",boundary,administrative
문학동,인천 미추홀구,37.4378379,126.6829082,"문학동, 미추홀구, 인천, 22235, 대한민국",boundary,administrative
옥련동,대한민국 인천 연수구,37.42425775,126.64782055157826,"옥련동, 연수구, 인천, 대한민국",boundary,legal
선학동,인천 연수구,37.4278854,126.6963107,"선학동, 연수구, 인천, 21938, 대한민국",boundary,administrative
연수동,대한민국 인천 연수구,37.41907715,126.6860232284817,"연수동, 연수구, 인천, 대한민국",boundary,legal
청학동,대한민국 인천 연수구,37.4234771,126.6645224,"청학동, 연수구, 인천, 대한민국",boundary,administrative
동춘동,인천 연수구 동춘동,37.4046979,126.6650924,"동춘동, 동춘1동, 연수구, 인천, 21971, 대한민국",place,quarter
송도동,,37.38585945,126.614738891491,"송도동, 대한민국",boundary,legal
구월동,대한민국 인천 남동구,37.447387500000005,126.70628903891496,"구월동, 남동구, 인천, 대한민국",boundary,legal
간석동,대한민국 인천광역시 남동구,37.46697525,126.70505478909814,"간석동, 남동구, 인천광역시, 대한민국",boundary,legal
만수동,인천 남동구 만수동,37.45291,126.73583,"만수동, 만수1동, 남동구, 인천, 21541, 대한민국",place,quarter
장수동,인천 남동구 장수서창동,37.4538232,126.7524602,"장수동, 장수서창동, 남동구, 인천, 21531, 대한민국",place,quarter
서창동,대한민국 광주광역시 서구,35.12017625,126.83942882987304,"서창동, 서구, 광주광역시, 대한민국",boundary,administrative
운연동,인천 남동구 장수서창동,37.4400271,126.7648967,"운연동, 장수서창동, 남동구, 인천, 14958, 대한민국",place,quarter
남촌동,인천 남동구 남촌도림동,37.427366,126.7120811,"남촌동, 남촌도림동, 남동구, 인천, 21623, 대한민국",place,quarter
수산동,인천 남동구 남촌도림동,37.4391973,126.7252881,"수산동, 남촌도림동, 남동구, 인천, 21588, 대한민국",place,quarter
도림동,서울특별시 영등포구,37.5082619,126.8993866115764,"도림동, 영등포구, 서울특별시, 07372, 대한민국",boundary,legal
논현동,서울특별시 강남구 논현동,37.5123018,127.0294935,"논현동, 논현1동, 강남구, 서울특별시, 06046, 대한민국",place,quarter
고잔동,인천 남동구 논현고잔동,37.3941796,126.6966863,"고잔동, 논현고잔동, 남동구, 인천, 21696, 대한민국",place,quarter
부평동,대한민국 인천광역시 부평구,37.4906976,126.723817,"부평동, 부평구, 인천광역시, 대한민국",boundary,administrative
십정동,대한민국 인천 부평구,37.4766289,126.69743135639776,"십정동, 부평구, 인천, 대한민국",boundary,administrative
산곡동,대한민국 인천 부평구,37.4991807,126.7024188,"산곡동, 부평구, 인천, 대한민국",boundary,administrative
청천동,인천 부평구 청천동,37.518833,126.7080961,"청천동, 청천2동, 부평구, 인천, 21311, 대한민국",place,quarter
삼산동,대한민국 울산광역시 남구,35.54126,129.34388,"삼산동, 남구, 울산광역시, 대한민국",boundary,administrative
갈산동,경기도 안양시 동안구,37.37762545,126.96445780588628,"갈산동, 동안구, 안양시, 경기도, 대한민국",boundary,administrative
부개동,대한민국 인천광역시 부평구,37.4937932,126.7380537,"부개동, 부평구, 인천광역시, 대한민국",boundary,administrative
일신동,인천 부평구,37.4808392,126.7479615,"일신동, 부평구, 인천, 21418, 대한민국",boundary,administrative
구산동,대한민국 서울특별시 은평구,37.61228115,126.9082658298626,"구산동, 은평구, 서울특별시, 대한민국",boundary,administrative
효성동,인천 계양구 효성동,37.5293934,126.7065108,"효성동, 효성1동, 계양구, 인천, 21098, 대한민국",place,quarter
계산동,대한민국 인천광역시 계양구,37.54323165,126.719896107684,"계산동, 계양구, 인천광역시, 대한민국",boundary,legal
작전동,인천 계양구 작전동,37.5304086,126.7257911,"작전동, 작전2동, 계양구, 인천, 21115, 대한민국",place,quarter
서운동,인천 계양구 작전서운동,37.5270032,126.7502139,"서운동, 작전서운동, 계양구, 인천, 21320, 대한민국",place,quarter
임학동,인천 계양구 계양동,37.547056,126.7365984,"임학동, 계양2동, 계양구, 인천, 21032, 대한민국",place,quarter
용종동,인천 계양구 계산동,37.5407855,126.7423176,"용종동, 계산4동, 계양구, 인천, 21063, 대한민국",place,quarter
병방동,인천 계양구 계양동,37.5479711,126.7445609,"병방동, 계양2동, 계양구, 인천, 21028, 대한민국",place,quarter
방축동,계양구 계양동,37.55408,126.7329,"방축동, 계양2동, 계양구, 21032, 대한민국",place,quarter
박촌동,계양구 계양동,37.5535205,126.750371,"박촌동, 계양1동, 계양구, 21022, 대한민국",place,quarter
동양동,계양구 계양동,37.5567863,126.7571391,"동양동, 계양3동, 계양구, 21013, 대한민국",place,quarter
귤현동,계양구 계양동,37.5665944,126.7371608,"귤현동, 계양1동, 계양구, 21015, 대한민국",place,quarter
상야동,계양구 계양동,37.5763055,126.7722975,"상야동, 계양3동, 계양구, 21011, 대한민국",place,quarter
하야동,계양구 계양동,37.57976,126.78527,"하야동, 계양3동, 계양구, 10135, 대한민국",place,quarter
평동,월전동 평동로,35.1248086,126.7695968,"평동, 870, 평동로, 월전동, 광산구, 광주광역시, 62420, 대한민국",railway,station
노오지동,계양구 계양동,37.57994,126.75878,"노오지동, 계양1동, 계양구, 21016, 대한민국",place,quarter
선주지동,계양구 계양동,37.5773198,126.7486483,"선주지동, 계양1동, 계양구, 21016, 대한민국",place,quarter
이화동,서울특별시 종로구,37.57663,127.00515,"이화동, 종로구, 서울특별시, 03087, 대한민국",place,quarter
오류동,오류동 경인로길,37.4943466,126.8445367,"오류동, 13, 경인로20길, 오류1동, 구로구, 서울특별시, 08270, 대한민국",railway,station
갈현동,대한민국 서울특별시 은평구,37.62089975,126.9127556896614,"갈현동, 은평구, 서울특별시, 대한민국",boundary,legal
둑실동,계양구 계양동,37.57354,126.70329,"둑실동, 계양1동, 계양구, 22871, 대한민국",place,quarter
목상동,대한민국 대전광역시 대덕구,36.439993,127.4026967640411,"목상동, 대덕구, 대전광역시, 대한민국",boundary,administrative
다남동,계양구 계양동,37.56339,126.72299,"다남동, 계양1동, 계양구, 21015, 대한민국",place,quarter
장기동,대한민국 대구광역시 달서구,35.8446408,128.519156,"장기동, 달서구, 대구광역시, 대한민국",boundary,administrative
백석동,충청남도 천안시 서북구,36.8242631,127.1178826,"백석동, 서북구, 천안시, 충청남도, 대한민국",boundary,administrative
시천동,서구 검암경서동,37.57011,126.68515,"시천동, 검암경서동, 서구, 22703, 대한민국",place,quarter
검암동,서구 검암경서동,37.56569,126.67546,"검암동, 검암경서동, 서구, 22696, 대한민국",place,quarter
경서동,서구 검암경서동,37.55468,126.64846,"경서동, 검암경서동, 서구, 22689, 대한민국",place,quarter
공촌동,인천 서구 연희동,37.55095,126.69262,"공촌동, 연희동, 서구, 인천, 22709, 대한민국",place,quarter
연희동,대한민국 서울특별시 서대문구,37.57234,126.93084,"연희동, 서대문구, 서울특별시, 대한민국",boundary,administrative
심곡동,경기도 부천시 원미구,37.49115155,126.78386918939852,"심곡동, 원미구, 부천시, 경기도, 대한민국",boundary,historic
가정동,대한민국 인천 서구,37.52654295,126.67406927343144,"가정동, 서구, 인천, 대한민국",boundary,legal
신현동,대한민국 경기도 시흥시,37.41190105,126.77328180648756,"신현동, 시흥시, 경기도, 대한민국",boundary,administrative
석남동,대한민국 인천 서구,37.5066407,126.6705374988803,"석남동, 서구, 인천, 대한민국",boundary,legal
원창동,인천 서구 신현원창동,37.513522,126.6298571,"원창동, 신현원창동, 서구, 인천, 22765, 대한민국",place,quarter
가좌동,대한민국 인천 서구,37.48819875,126.67642284472782,"가좌동, 서구, 인천, 대한민국",boundary,legal
마전동,서구 당하동,37.5969838,126.6676253,"마전동, 당하동, 서구, 22640, 대한민국",place,quarter
당하동,,37.59073515,126.6762148802504,"당하동, 서구, 대한민국",boundary,administrative
원당동,대한민국 서구,37.59250195,126.69391308226592,"원당동, 서구, 22625, 대한민국",boundary,administrative
대곡동,서구 불로대곡동,37.62399,126.66584,"대곡동, 불로대곡동, 서구, 10088, 대한민국",place,quarter
금곡동,인천 동구 금창동,37.4725,126.63928,"금곡동, 금창동, 동구, 인천, 22564, 대한민국",place,quarter
오류동,오류동 경인로길,37.4943466,126.8445367,"오류동, 13, 경인로20길, 오류1동, 구로구, 서울특별시, 08270, 대한민국",railway,station
왕길동,서구 오류왕길동,37.5774,126.64574,"왕길동, 오류왕길동, 서구, 22689, 대한민국",place,quarter
불로동,서구 불로대곡동,37.6111164,126.6875745,"불로동, 불로대곡동, 서구, 22620, 대한민국",place,quarter
청라동,인천 서구 청라동,37.5330681,126.6299034,"청라동, 청라3동, 서구, 인천, 22753, 대한민국",place,quarter
강화읍,,37.7482072,126.4835323,"강화읍, 강화군, 대한민국",boundary,administrative
선원면,,37.71664,126.48937,"선원면, 강화군, 대한민국",boundary,administrative
불은면,대한민국 강화군,37.67827,126.49272,"불은면, 강화군, 23046, 대한민국",boundary,administrative
길상면,,37.6265,126.49884,"길상면, 강화군, 대한민국",boundary,administrative
화도면,,37.6165073,126.4189198,"화도면, 강화군, 대한민국",boundary,administrative
양도면,,37.66768,126.42845,"양도면, 강화군, 대한민국",boundary,administrative
내가면,대한민국 강화군,37.719122,126.3858798,"내가면, 강화군, 23018, 대한민국",boundary,administrative
하점면,대한민국 강화군,37.768405,126.4048539,"하점면, 강화군, 23015, 대한민국",boundary,administrative
양사면,대한민국 강화군,37.8026812,126.4060337,"양사면, 강화군, 23011, 대한민국",boundary,administrative
송해면,대한민국 강화군,37.7759204,126.4623744,"송해면, 강화군, 23019, 대한민국",boundary,administrative
교동면,,37.7884282,126.2696329,"교동면, 강화군, 대한민국",boundary,administrative
삼산면,,37.70832,126.3038246,"삼산면, 강화군, 대한민국",boundary,administrative
서도면,,37.6531305,126.2238429,"서도면, 강화군, 대한민국",boundary,administrative
북도면,,37.531186,126.4067084,"북도면, 옹진군, 대한민국",boundary,administrative
백령면,,37.9486074,124.6798095,"백령면, 옹진군, 대한민국",boundary,administrative
대청면,대한민국 옹진군,37.8081472,124.7056326,"대청면, 옹진군, 23105, 대한민국",boundary,administrative
덕적면,대한민국 옹진군,37.2317714,126.1155044,"덕적면, 옹진군, 23130, 대한민국",boundary,administrative
영흥면,,37.2532931,126.4642048,"영흥면, 옹진군, 대한민국",boundary,administrative
자월면,,37.2504608,126.3084438,"자월면, 옹진군, 대한민국",boundary,administrative
연평면,대한민국 옹진군,37.6687698,125.6946955,"연평면, 옹진군, 23108, 대한민국",boundary,administrative
대인동,광주광역시 동구 충장동,35.154038,126.915386,"대인동, 충장동, 동구, 광주광역시, 61473, 대한민국",place,quarter
금남로5가,유동 금남로,35.1537362,126.9099927,"금남로5가, 138, 금남로, 유동, 충장동, 동구, 광주광역시, 61240, 대한민국",railway,stop
충장로5가,광주광역시 동구 충장동,35.1513336,126.9111053,"충장로5가, 충장동, 동구, 광주광역시, 61479, 대한민국",place,quarter
수기동,광주광역시 동구 충장동,35.1506008,126.9096959,"수기동, 충장동, 동구, 광주광역시, 61479, 대한민국",place,quarter
대의동,광주광역시 동구 충장동,35.148899,126.9204811,"대의동, 충장동, 동구, 광주광역시, 61485, 대한민국",place,quarter
궁동,서울특별시 구로구 수궁동,37.5006694,126.8280726,"궁동, 수궁동, 구로구, 서울특별시, 08248, 대한민국",place,quarter
장동,대구광역시 달서구 장기동,35.83845,128.51512,"장동, 장기동, 달서구, 대구광역시, 42722, 대한민국",place,quarter
동명동,대한민국 강원특별자치도 속초시,38.21139,128.59318,"동명동, 속초시, 강원특별자치도, 대한민국",boundary,administrative
계림동,광주광역시 동구 계림동,35.15921,126.9207879,"계림동, 계림2동, 동구, 광주광역시, 61422, 대한민국",place,quarter
산수동,광주광역시 광산구,35.1865235,126.7462649,"산수동, 광산구, 광주광역시, 62203, 대한민국",place,quarter
지산동,대한민국 대구광역시 수성구,35.8239902,128.63451378406114,"지산동, 수성구, 대구광역시, 대한민국",boundary,legal
남동,광주광역시 동구 서남동,35.1441195,126.9202003,"남동, 서남동, 동구, 광주광역시, 61487, 대한민국",place,quarter
광산동,광주광역시 광산구 임곡동,35.23987,126.74768,"광산동, 임곡동, 광산구, 광주광역시, 35301, 대한민국",place,quarter
금동,광주광역시 동구 서남동,35.1432121,126.9177517,"금동, 서남동, 동구, 광주광역시, 61488, 대한민국",place,quarter
호남동,광주광역시 동구 충장동,35.1476719,126.9127685,"호남동, 충장동, 동구, 광주광역시, 61480, 대한민국",place,quarter
불로동,서구 불로대곡동,37.6111164,126.6875745,"불로동, 불로대곡동, 서구, 22620, 대한민국",place,quarter
황금동,전라남도 광양시,34.9132611,127.6433442,"황금동, 광양시, 전라남도, 57769, 대한민국",place,quarter
서석동,광주광역시 동구 서남동,35.1425263,126.928997,"서석동, 서남동, 동구, 광주광역시, 61452, 대한민국",place,quarter
소태동,광주광역시 동구,35.1210734,126.935949,"소태동, 동구, 광주광역시, 61504, 대한민국",place,quarter
용연동,광주광역시 동구,35.1017287,126.9705806,"용연동, 동구, 광주광역시, 58105, 대한민국",place,quarter
운림동,광주광역시 동구,35.1326322,126.943301,"운림동, 동구, 광주광역시, 61492, 대한민국",place,quarter
학동,논현동 논현동 논현로,37.5139566,127.03075,"학동, 논현로, 논현동, 논현1동, 강남구, 서울특별시, 06046, 대한민국",railway,station
월남동,광주광역시 동구 주남마을,35.1024332,126.9388594,"월남동, 주남마을, 동구, 광주광역시, 61504, 대한민국",place,quarter
선교동,광주광역시 동구,35.085694,126.95171,"선교동, 동구, 광주광역시, 58105, 대한민국",place,quarter
내남동,광주광역시 동구 남계촌,35.0915973,126.9403105,"내남동, 남계촌, 동구, 광주광역시, 61504, 대한민국",place,quarter
용산동,대구광역시 달서구 용산동,35.8571362,128.52484,"용산동, 용산1동, 달서구, 대구광역시, 42617, 대한민국",place,quarter
충장로1가,광주광역시 동구 충장동,35.1471811,126.9177974,"충장로1가, 충장동, 동구, 광주광역시, 61475, 대한민국",place,quarter
충장로2가,광주광역시 동구 충장동,35.1479538,126.9165893,"충장로2가, 충장동, 동구, 광주광역시, 61482, 대한민국",place,quarter
충장로3가,광주광역시 동구 충장동,35.1489293,126.9152783,"충장로3가, 충장동, 동구, 광주광역시, 61483, 대한민국",place,quarter
충장로4가,광주광역시 동구 충장동,35.1495194,126.9135039,"충장로4가, 충장동, 동구, 광주광역시, 61480, 대한민국",place,quarter
금남로1가,광주광역시 동구 충장동,35.1477961,126.9189997,"금남로1가, 충장동, 동구, 광주광역시, 61475, 대한민국",place,quarter
금남로2가,광주광역시 동구 충장동,35.1487619,126.9174897,"금남로2가, 충장동, 동구, 광주광역시, 61482, 대한민국",place,quarter
금남로3가,광주광역시 동구 충장동,35.1498175,126.9162018,"금남로3가, 충장동, 동구, 광주광역시, 61482, 대한민국",place,quarter
금남로4가,충장동 유동 금남로,35.1507626,126.9146034,"금남로4가, 금남로, 유동, 충장동, 동구, 광주광역시, 61240, 대한민국",railway,stop
양동,양평군 쌍학리 학둔지윗길,37.4202671,127.7547601,"양동, 학둔지윗길, 쌍학리, 양평군, 경기도, 12539, 대한민국",railway,station
농성동,광주광역시 서구 농성동,35.1541526,126.8884127,"농성동, 농성1동, 서구, 광주광역시, 61936, 대한민국",place,quarter
광천동,대한민국 광주광역시 서구,35.1647499,126.8810106,"광천동, 서구, 광주광역시, 대한민국",boundary,administrative
유촌동,광주광역시 서구 유덕동,35.1643042,126.851776,"유촌동, 유덕동, 서구, 광주광역시, 61901, 대한민국",place,quarter
덕흥동,광주광역시 서구 유덕동,35.1662784,126.836961,"덕흥동, 유덕동, 서구, 광주광역시, 61944, 대한민국",place,quarter
쌍촌동,광주광역시 서구 상무동,35.152147,126.8626963,"쌍촌동, 상무1동, 서구, 광주광역시, 62042, 대한민국",place,quarter
화정동,광주광역시 서구 화정동,35.1455508,126.8761023,"화정동, 화정3동, 서구, 광주광역시, 62037, 대한민국",place,quarter
치평동,대한민국 광주광역시 서구,35.152758,126.8449919184395,"치평동, 서구, 광주광역시, 대한민국",boundary,administrative
내방동,,,,,,
서창동,대한민국 광주광역시 서구,35.12017625,126.83942882987304,"서창동, 서구, 광주광역시, 대한민국",boundary,administrative
세하동,광주광역시 서구 서창동,35.1209267,126.8318976,"세하동, 서창동, 서구, 광주광역시, 62076, 대한민국",place,quarter
용두동,서울특별시 동대문구 용신동,37.57616,127.03476,"용두동, 용신동, 동대문구, 서울특별시, 02566, 대한민국",place,quarter
풍암동,대한민국 광주광역시 서구,35.1242195,126.87511186272812,"풍암동, 서구, 광주광역시, 대한민국",boundary,administrative
벽진동,광주광역시 서구 서창동,35.13196,126.83206,"벽진동, 서창동, 서구, 광주광역시, 61960, 대한민국",place,quarter
금호동,대한민국 강원특별자치도 속초시,38.21071,128.57933,"금호동, 속초시, 강원특별자치도, 대한민국",boundary,administrative
마륵동,광주광역시 서구 서창동,35.145146,126.8372627,"마륵동, 서창동, 서구, 광주광역시, 61958, 대한민국",place,quarter
매월동,광주광역시 서구 서창동,35.1154386,126.8510188,"매월동, 서창동, 서구, 광주광역시, 62070, 대한민국",place,quarter
동천동,용인시 수지구 신봉동,37.34038,127.08564,"동천동, 신봉동, 수지구, 용인시, 경기도, 16822, 대한민국",place,quarter
사동,인천 중구 신포동,37.46836,126.62518,"사동, 신포동, 중구, 인천, 22313, 대한민국",place,quarter
구동,광주광역시 남구 사직동,35.1469396,126.909874,"구동, 사직동, 남구, 광주광역시, 61636, 대한민국",place,quarter
서동,대한민국 부산광역시 금정구,35.21886655,129.1031418881441,"서동, 금정구, 부산광역시, 대한민국",boundary,legal
월산동,광주광역시 남구,35.1472625,126.9025939,"월산동, 남구, 광주광역시, 61631, 대한민국",place,quarter
백운동,광주광역시 남구 백운동,35.1377798,126.9042413,"백운동, 백운1동, 남구, 광주광역시, 61648, 대한민국",place,quarter
주월동,광주광역시 남구,35.1308326,126.8973416,"주월동, 남구, 광주광역시, 61723, 대한민국",place,quarter
노대동,광주광역시 남구,35.1013144,126.9064869,"노대동, 남구, 광주광역시, 61714, 대한민국",place,quarter
진월동,광주광역시 남구,35.1156752,126.9005747,"진월동, 남구, 광주광역시, 61713, 대한민국",place,quarter
덕남동,광주광역시 남구 덕남마을,35.0918827,126.8988698,"덕남동, 덕남마을, 남구, 광주광역시, 61764, 대한민국",place,quarter
행암동,광주광역시 남구,35.0998012,126.8878678,"행암동, 남구, 광주광역시, 61764, 대한민국",place,quarter
임암동,광주광역시 남구,35.1036046,126.8712642,"임암동, 남구, 광주광역시, 61740, 대한민국",place,quarter
송하동,광주광역시 남구,35.1102272,126.8819292,"송하동, 남구, 광주광역시, 61740, 대한민국",place,quarter
양림동,광주광역시 남구,35.13835,126.91441,"양림동, 남구, 광주광역시, 61662, 대한민국",boundary,administrative
방림동,광주광역시 남구,35.1315928,126.9203009,"방림동, 남구, 광주광역시, 61677, 대한민국",place,quarter
봉선동,광주광역시 남구,35.1234765,126.9131927,"봉선동, 남구, 광주광역시, 61685, 대한민국",place,quarter
구소동,광주광역시 남구,35.0569777,126.8075762,"구소동, 남구, 광주광역시, 58214, 대한민국",place,quarter
양촌동,광주광역시 남구,35.0655069,126.7872909,"양촌동, 남구, 광주광역시, 62462, 대한민국",place,quarter
도금동,광주광역시 남구,35.0753641,126.8450815,"도금동, 남구, 광주광역시, 61751, 대한민국",place,quarter
승촌동,광주광역시 남구,35.0612912,126.7734318,"승촌동, 남구, 광주광역시, 62462, 대한민국",place,quarter
지석동,광주광역시 남구,35.0825646,126.8338222,"지석동, 남구, 광주광역시, 61751, 대한민국",place,quarter
압촌동,광주광역시 남구,35.0918633,126.8326125,"압촌동, 남구, 광주광역시, 61751, 대한민국",place,quarter
화장동,광주광역시 남구,35.0805335,126.8009628,"화장동, 남구, 광주광역시, 62462, 대한민국",place,quarter
칠석동,광주광역시 남구,35.0697523,126.8345592,"칠석동, 남구, 광주광역시, 61751, 대한민국",place,quarter
석정동,광주광역시 남구,35.0854899,126.8161434,"석정동, 남구, 광주광역시, 61751, 대한민국",place,quarter
신장동,광주광역시 남구,35.0590269,126.8181733,"신장동, 남구, 광주광역시, 58214, 대한민국",place,quarter
양과동,광주광역시 남구,35.0855966,126.8773817,"양과동, 남구, 광주광역시, 61768, 대한민국",place,quarter
이장동,광주광역시 남구,35.0884653,126.8585893,"이장동, 남구, 광주광역시, 61751, 대한민국",place,quarter
대지동,광주광역시 남구,35.0719897,126.8206509,"대지동, 남구, 광주광역시, 61751, 대한민국",place,quarter
원산동,대한민국 전라남도 목포시,34.81014545,126.37834647580212,"원산동, 목포시, 전라남도, 대한민국",boundary,administrative
월성동,광주광역시 남구,35.0660341,126.8068545,"월성동, 남구, 광주광역시, 58214, 대한민국",place,quarter
중흥동,대한민국 광주광역시 북구,35.16645955,126.9104227542808,"중흥동, 북구, 광주광역시, 대한민국",boundary,legal
유동,인천 중구 율목동,37.46973,126.63687,"유동, 율목동, 중구, 인천, 22319, 대한민국",place,quarter
누문동,광주광역시 북구 중앙동,35.1541741,126.9061379,"누문동, 중앙동, 북구, 광주광역시, 61240, 대한민국",place,quarter
북동,광주광역시 북구 중앙동,35.1558233,126.9096688,"북동, 중앙동, 북구, 광주광역시, 61239, 대한민국",place,quarter
임동,대한민국 광주광역시 북구,35.1626397,126.89455665052262,"임동, 북구, 광주광역시, 대한민국",boundary,administrative
신안동,대한민국 경상남도 진주시,35.18387005,128.07247880678457,"신안동, 진주시, 경상남도, 대한민국",boundary,administrative
용봉동,대한민국 광주광역시 북구,35.1794701,126.9013330015432,"용봉동, 북구, 광주광역시, 대한민국",boundary,administrative
동림동,광주광역시 북구,35.1787772,126.8592181,"동림동, 북구, 광주광역시, 61096, 대한민국",boundary,administrative
운암동,광주광역시 북구,35.177893,126.8784333,"운암동, 북구, 광주광역시, 61258, 대한민국",place,quarter
우산동,대한민국 광주광역시 광산구,35.1542122,126.81521850486143,"우산동, 광산구, 광주광역시, 대한민국",boundary,administrative
풍향동,광주광역시 북구,35.1647214,126.9266568,"풍향동, 북구, 광주광역시, 61206, 대한민국",place,quarter
문흥동,광주광역시 북구,35.1879593,126.9250673,"문흥동, 북구, 광주광역시, 61129, 대한민국",place,quarter
각화동,광주광역시 북구,35.1848428,126.9398536,"각화동, 북구, 광주광역시, 61139, 대한민국",place,quarter
두암동,광주광역시 북구,35.1705473,126.9358089,"두암동, 북구, 광주광역시, 61196, 대한민국",place,quarter
오치동,광주광역시 북구,35.187174,126.913192,"오치동, 북구, 광주광역시, 61173, 대한민국",place,quarter
